[
  {
    "id": 1,
    "nombre": "Tehuitzingo",
    "municipio": "Tehuitzingo",
    "region": "Mixteca",
    "lat": 18.3294,
    "lng": -98.2775,
    "poblacion": 12000,
    "tieneTransporte": true,
    "lengua": "Mixteco",
    "referencia": "Centro del pueblo, cerca de la carretera federal 190"
  },
  
  {
    "id": 40,
    "nombre": "Cuetzalan del Progreso",
    "municipio": "Cuetzalan",
    "region": "Sierra Norte",
    "lat": 20.0183,
    "lng": -97.5186,
    "poblacion": 6500,
    "tieneTransporte": true,
    "lengua": "Nahuatl",
    "referencia": "Pueblo Mágico, cerca de la Parroquia de San Francisco y mercado de los domingos"
  },
  {
    "id": 41,
    "nombre": "San Andres Tzicuilan",
    "municipio": "Cuetzalan",
    "region": "Sierra Norte",
    "lat": 20.0039,
    "lng": -97.5258,
    "poblacion": 1800,
    "tieneTransporte": false,
    "lengua": "Totonaco",
    "referencia": "Cerca de las cascadas Las Brisas y el río Tzicuilan"
  },
  {
    "id": 42,
    "nombre": "Reyeshogpan de Hidalgo",
    "municipio": "Cuetzalan",
    "region": "Sierra Norte",
    "lat": 20.0381,
    "lng": -97.5453,
    "poblacion": 1200,
    "tieneTransporte": false,
    "lengua": "Nahuatl",
    "referencia": "Camino hacia Yohualichan, zona de cafetales"
  },
  {
    "id": 43,
    "nombre": "Xiloxochico de Rafael Avila Camacho",
    "municipio": "Cuetzalan",
    "region": "Sierra Norte",
    "lat": 19.9886,
    "lng": -97.4789,
    "poblacion": 1500,
    "tieneTransporte": false,
    "lengua": "Nahuatl",
    "referencia": "Cerca de la zona arqueológica de Yohualichan"
  },
  {
    "id": 44,
    "nombre": "Tepango de Rodriguez",
    "municipio": "Tepango de Rodriguez",
    "region": "Sierra Norte",
    "lat": 20.0033,
    "lng": -97.7961,
    "poblacion": 900,
    "tieneTransporte": false,
    "lengua": "Totonaco",
    "referencia": "Zona de difícil acceso en la sierra, cerca de la iglesia principal"
  },
  {
    "id": 45,
    "nombre": "Huehuetla",
    "municipio": "Huehuetla",
    "region": "Sierra Norte",
    "lat": 20.1089,
    "lng": -97.6253,
    "poblacion": 3200,
    "tieneTransporte": true,
    "lengua": "Totonaco",
    "referencia": "Junto al río Tehuantepec, centro del Totonacapan poblano"
  },
  {
    "id": 46,
    "nombre": "San Pablito Pahuatlan",
    "municipio": "Pahuatlan",
    "region": "Sierra Norte",
    "lat": 20.2872,
    "lng": -98.1508,
    "poblacion": 2800,
    "tieneTransporte": false,
    "lengua": "Otomi",
    "referencia": "Famoso por la producción de papel amate, cerca del cerro del Águila"
  },
  {
    "id": 47,
    "nombre": "Jopala",
    "municipio": "Jopala",
    "region": "Sierra Norte",
    "lat": 20.1917,
    "lng": -97.8081,
    "poblacion": 1100,
    "tieneTransporte": false,
    "lengua": "Totonaco",
    "referencia": "Cerca del río Necaxa, acceso por brechas"
  },
  {
    "id": 48,
    "nombre": "Olintla",
    "municipio": "Olintla",
    "region": "Sierra Norte",
    "lat": 20.0983,
    "lng": -97.6781,
    "poblacion": 2500,
    "tieneTransporte": false,
    "lengua": "Totonaco",
    "referencia": "Zona serrana profunda, cerca de la iglesia de San José"
  },
  {
    "id": 49,
    "nombre": "Jonotla",
    "municipio": "Jonotla",
    "region": "Sierra Norte",
    "lat": 20.0333,
    "lng": -97.5667,
    "poblacion": 900,
    "tieneTransporte": false,
    "lengua": "Nahuatl",
    "referencia": "Cerca del Peñón de Jonotla (mirador)"
  },
  {
    "id": 50,
    "nombre": "Tuzamapan de Galeana",
    "municipio": "Tuzamapan de Galeana",
    "region": "Sierra Norte",
    "lat": 20.0667,
    "lng": -97.5833,
    "poblacion": 2100,
    "tieneTransporte": true,
    "lengua": "Totonaco",
    "referencia": "Cerca del río Cempoala"
  },
  {
    "id": 51,
    "nombre": "Naupan",
    "municipio": "Naupan",
    "region": "Sierra Norte",
    "lat": 20.2458,
    "lng": -98.1214,
    "poblacion": 1800,
    "tieneTransporte": false,
    "lengua": "Nahuatl",
    "referencia": "En la falda del cerro, camino hacia Huauchinango"
  },
  {
    "id": 52,
    "nombre": "Honey",
    "municipio": "Honey",
    "region": "Sierra Norte",
    "lat": 20.2333,
    "lng": -98.2333,
    "poblacion": 1500,
    "tieneTransporte": false,
    "lengua": "Nahuatl",
    "referencia": "Zona de cascadas, clima muy frío cerca de la estación del tren"
  },
  {
    "id": 53,
    "nombre": "Hueytamalco",
    "municipio": "Hueytamalco",
    "region": "Huasteca",
    "lat": 20.0922,
    "lng": -97.2883,
    "poblacion": 4200,
    "tieneTransporte": true,
    "lengua": "Nahuatl",
    "referencia": "Cerca de la frontera con Veracruz, zona tropical"
  },
  {
    "id": 54,
    "nombre": "Ayotoxco de Guerrero",
    "municipio": "Ayotoxco",
    "region": "Huasteca",
    "lat": 20.0911,
    "lng": -97.4089,
    "poblacion": 2300,
    "tieneTransporte": false,
    "lengua": "Nahuatl",
    "referencia": "Zona ganadera, cerca del río Apulco"
  },
  {
    "id": 55,
    "nombre": "Tlatlauquitepec",
    "municipio": "Tlatlauquitepec",
    "region": "Huasteca",
    "lat": 19.8475,
    "lng": -97.4964,
    "poblacion": 9500,
    "tieneTransporte": true,
    "lengua": "Nahuatl",
    "referencia": "Al pie del Cerro Cabezón, centro histórico"
  },
  {
    "id": 56,
    "nombre": "Zautla",
    "municipio": "Zautla",
    "region": "Sierra Nororiental",
    "lat": 19.7689,
    "lng": -97.6628,
    "poblacion": 1300,
    "tieneTransporte": false,
    "lengua": "Nahuatl",
    "referencia": "Cerca de los talleres de alfarería de barro rojo"
  },
  {
    "id": 57,
    "nombre": "Chignautla",
    "municipio": "Chignautla",
    "region": "Sierra Nororiental",
    "lat": 19.8208,
    "lng": -97.3875,
    "poblacion": 3100,
    "tieneTransporte": false,
    "lengua": "Nahuatl",
    "referencia": "Cerca de los manantiales de los 9 ojos de agua"
  },
  
  { "id": 1, "nombre": "Tehuitzingo", "municipio": "Tehuitzingo", "region": "Mixteca", "lat": 18.3294, "lng": -98.2775, "poblacion": 12000, "tieneTransporte": true, "lengua": "Nahuatl", "referencia": "Centro del municipio, carretera federal 190" },
  { "id": 2, "nombre": "Acatlán de Osorio", "municipio": "Acatlán", "region": "Mixteca", "lat": 18.2017, "lng": -98.0483, "poblacion": 34000, "tieneTransporte": true, "lengua": "Mixteco", "referencia": "Cerca del mercado municipal y el ex-convento" },
  { "id": 3, "nombre": "Chiautla de Tapia", "municipio": "Chiautla", "region": "Mixteca", "lat": 18.2989, "lng": -98.6019, "poblacion": 21000, "tieneTransporte": true, "lengua": "Nahuatl", "referencia": "Zona centro, cerca del zócalo" },
  { "id": 4, "nombre": "Izúcar de Matamoros", "municipio": "Izúcar", "region": "Mixteca", "lat": 18.6014, "lng": -98.4636, "poblacion": 82000, "tieneTransporte": true, "lengua": "Nahuatl", "referencia": "Junto al río Nejapa y zona de balnearios" },
  { "id": 5, "nombre": "Coatzingo", "municipio": "Coatzingo", "region": "Mixteca", "lat": 18.6075, "lng": -98.1714, "poblacion": 3000, "tieneTransporte": false, "lengua": "Nahuatl", "referencia": "Cerca de la Parroquia de San Juan Evangelista" },
  { "id": 6, "nombre": "Piaxtla", "municipio": "Piaxtla", "region": "Mixteca", "lat": 18.1953, "lng": -98.2494, "poblacion": 9000, "tieneTransporte": true, "lengua": "Mixteco", "referencia": "Cerca del río Piaxtla" },
  { "id": 7, "nombre": "Xayacatlán de Bravo", "municipio": "Xayacatlán", "region": "Mixteca", "lat": 18.2167, "lng": -97.9833, "poblacion": 1700, "tieneTransporte": false, "lengua": "Mixteco", "referencia": "Zona montañosa de la Mixteca baja" },
  { "id": 8, "nombre": "San Pablo Anicano", "municipio": "San Pablo Anicano", "region": "Mixteca", "lat": 18.1500, "lng": -98.0833, "poblacion": 3500, "tieneTransporte": false, "lengua": "Mixteco", "referencia": "Cerca del Santuario del Señor de la Paz" },
  { "id": 9, "nombre": "Huehuetlán el Grande", "municipio": "Huehuetlán", "region": "Mixteca", "lat": 18.7333, "lng": -98.1667, "poblacion": 7000, "tieneTransporte": false, "lengua": "Nahuatl", "referencia": "Cerca de los manantiales de agua termal" },
  { "id": 10, "nombre": "Tulcingo del Valle", "municipio": "Tulcingo", "region": "Mixteca", "lat": 18.0414, "lng": -98.4419, "poblacion": 11000, "tieneTransporte": true, "lengua": "Mixteco", "referencia": "Zona de comercio cerca del límite con Guerrero" },
  { "id": 11, "nombre": "Cuetzalan del Progreso", "municipio": "Cuetzalan", "region": "Sierra Norte", "lat": 20.0183, "lng": -97.5186, "poblacion": 6500, "tieneTransporte": true, "lengua": "Nahuatl", "referencia": "Pueblo Mágico, cerca de la Parroquia de San Francisco" },
  { "id": 12, "nombre": "San Andrés Tzicuilan", "municipio": "Cuetzalan", "region": "Sierra Norte", "lat": 20.0039, "lng": -97.5258, "poblacion": 1800, "tieneTransporte": false, "lengua": "Totonaco", "referencia": "Cerca de las cascadas Las Brisas" },
  { "id": 13, "nombre": "Huehuetla", "municipio": "Huehuetla", "region": "Sierra Norte", "lat": 20.1089, "lng": -97.6253, "poblacion": 3200, "tieneTransporte": true, "lengua": "Totonaco", "referencia": "Junto al río Tehuantepec" },
  { "id": 14, "nombre": "San Pablito", "municipio": "Pahuatlán", "region": "Sierra Norte", "lat": 20.2872, "lng": -98.1508, "poblacion": 2800, "tieneTransporte": false, "lengua": "Otomí", "referencia": "Famoso por el papel amate" },
  { "id": 15, "nombre": "Olintla", "municipio": "Olintla", "region": "Sierra Norte", "lat": 20.0983, "lng": -97.6781, "poblacion": 2500, "tieneTransporte": false, "lengua": "Totonaco", "referencia": "Zona serrana profunda, cerca de San José" },
  { "id": 16, "nombre": "Jonotla", "municipio": "Jonotla", "region": "Sierra Norte", "lat": 20.0333, "lng": -97.5667, "poblacion": 900, "tieneTransporte": false, "lengua": "Nahuatl", "referencia": "Cerca del Peñón de Jonotla" },
  { "id": 17, "nombre": "Honey", "municipio": "Honey", "region": "Sierra Norte", "lat": 20.2333, "lng": -98.2333, "poblacion": 1500, "tieneTransporte": false, "lengua": "Nahuatl", "referencia": "Zona de cascadas y bosque de niebla" },
  { "id": 18, "nombre": "Chignautla", "municipio": "Chignautla", "region": "Sierra Nororiental", "lat": 19.8208, "lng": -97.3875, "poblacion": 3100, "tieneTransporte": false, "lengua": "Nahuatl", "referencia": "Cerca de los manantiales de los 9 ojos de agua" },
  { "id": 19, "nombre": "Zacapoaxtla", "municipio": "Zacapoaxtla", "region": "Sierra Nororiental", "lat": 19.8667, "lng": -97.5833, "poblacion": 8000, "tieneTransporte": true, "lengua": "Nahuatl", "referencia": "Centro histórico, zona heroica" },
  { "id": 20, "nombre": "Tlatlauquitepec", "municipio": "Tlatlauquitepec", "region": "Sierra Nororiental", "lat": 19.8475, "lng": -97.4964, "poblacion": 9500, "tieneTransporte": true, "lengua": "Nahuatl", "referencia": "Cerca del Cerro Cabezón" },
  { "id": 21, "nombre": "San Gabriel Chilac", "municipio": "San Gabriel Chilac", "region": "Sierra Negra", "lat": 18.3300, "lng": -97.3300, "poblacion": 15000, "tieneTransporte": true, "lengua": "Nahuatl", "referencia": "Famoso por sus bordados y ceremonias de día de muertos" },
  { "id": 22, "nombre": "Ajalpan", "municipio": "Ajalpan", "region": "Sierra Negra", "lat": 18.3783, "lng": -97.2283, "poblacion": 28000, "tieneTransporte": true, "lengua": "Nahuatl", "referencia": "Cerca del parque central y mercado" },
  { "id": 23, "nombre": "Altepexi", "municipio": "Altepexi", "region": "Sierra Negra", "lat": 18.3667, "lng": -97.3000, "poblacion": 19000, "tieneTransporte": true, "lengua": "Nahuatl", "referencia": "Zona productora de artesanía de barro" },
  { "id": 24, "nombre": "Coyomeapan", "municipio": "Coyomeapan", "region": "Sierra Negra", "lat": 18.2667, "lng": -97.0167, "poblacion": 2500, "tieneTransporte": false, "lengua": "Nahuatl", "referencia": "Sierra alta, difícil acceso por neblina" },
  { "id": 25, "nombre": "Zoquitlán", "municipio": "Zoquitlán", "region": "Sierra Negra", "lat": 18.3333, "lng": -97.0167, "poblacion": 3200, "tieneTransporte": false, "lengua": "Nahuatl", "referencia": "Zona de cafetales de altura" },
  { "id": 26, "nombre": "San Marcos Tlacoyalco", "municipio": "Tlacotepec", "region": "Sierra Negra", "lat": 18.6333, "lng": -97.5167, "poblacion": 10000, "tieneTransporte": true, "lengua": "Popoloca", "referencia": "Centro de la cultura Popoloca" },
  { "id": 27, "nombre": "Zapotitlán Salinas", "municipio": "Zapotitlán", "region": "Sierra Negra", "lat": 18.3267, "lng": -97.4783, "poblacion": 2700, "tieneTransporte": true, "lengua": "Nahuatl", "referencia": "Cerca de las salinas ancestrales y Jardín Botánico" },
  { "id": 28, "nombre": "San Luis Atolotitlán", "municipio": "Caltepec", "region": "Sierra Negra", "lat": 18.1833, "lng": -97.4167, "poblacion": 1200, "tieneTransporte": false, "lengua": "Nahuatl", "referencia": "Cerca de las zonas de cactáceas gigantes" },
  { "id": 29, "nombre": "Vicente Guerrero", "municipio": "Vicente Guerrero", "region": "Sierra Negra", "lat": 18.5000, "lng": -97.1667, "poblacion": 3000, "tieneTransporte": false, "lengua": "Nahuatl", "referencia": "Zona limítrofe con Veracruz" },
  { "id": 30, "nombre": "Eloxochitlán", "municipio": "Eloxochitlán", "region": "Sierra Negra", "lat": 18.5000, "lng": -96.9333, "poblacion": 2000, "tieneTransporte": false, "lengua": "Nahuatl", "referencia": "Sierra profunda, zona muy húmeda" },
  { "id": 31, "nombre": "Zacatlánd de las Manzanas", "municipio": "Zacatlánd", "region": "Sierra Norte", "lat": 19.9320, "lng": -97.9610, "poblacion": 35000, "tieneTransporte": true, "lengua": "Nahuatl", "referencia": "Cerca del Reloj Floral y Barranca de los Jilgueros" },
  { "id": 32, "nombre": "Chignahuapan", "municipio": "Chignahuapan", "region": "Sierra Norte", "lat": 19.8380, "lng": -98.0030, "poblacion": 20000, "tieneTransporte": true, "lengua": "Nahuatl", "referencia": "Cerca de la Basílica de la Inmaculada Concepción" },
  { "id": 33, "nombre": "Pahuatlán de Valle", "municipio": "Pahuatlán", "region": "Sierra Norte", "lat": 20.2780, "lng": -98.1500, "poblacion": 4000, "tieneTransporte": true, "lengua": "Nahuatl", "referencia": "Cerca del puente colgante de Miguel Hidalgo" },
  { "id": 34, "nombre": "Huauchinango", "municipio": "Huauchinango", "region": "Sierra Norte", "lat": 20.1770, "lng": -98.0520, "poblacion": 56000, "tieneTransporte": true, "lengua": "Nahuatl", "referencia": "Cerca de la Presa de Necaxa" },
  { "id": 35, "nombre": "Xicotepec de Juárez", "municipio": "Xicotepec", "region": "Sierra Norte", "lat": 20.2720, "lng": -97.9620, "poblacion": 40000, "tieneTransporte": true, "lengua": "Nahuatl", "referencia": "Cerca del monumento a la Virgen de Guadalupe" },
  { "id": 36, "nombre": "Naupan", "municipio": "Naupan", "region": "Sierra Norte", "lat": 20.2458, "lng": -98.1214, "poblacion": 1800, "tieneTransporte": false, "lengua": "Nahuatl", "referencia": "Zona de floricultura de azaleas" },
  { "id": 37, "nombre": "Jopala", "municipio": "Jopala", "region": "Sierra Norte", "lat": 20.1917, "lng": -97.8081, "poblacion": 1100, "tieneTransporte": false, "lengua": "Totonaco", "referencia": "Acceso por la carretera a Filomeno Mata" },
  { "id": 38, "nombre": "Tlacuilotepec", "municipio": "Tlacuilotepec", "region": "Sierra Norte", "lat": 20.3500, "lng": -98.0500, "poblacion": 1500, "tieneTransporte": false, "lengua": "Nahuatl", "referencia": "Cerca de la zona boscosa del norte" },
  { "id": 39, "nombre": "Zihuateutla", "municipio": "Zihuateutla", "region": "Sierra Norte", "lat": 20.2500, "lng": -97.8833, "poblacion": 900, "tieneTransporte": false, "lengua": "Nahuatl", "referencia": "Zona de cafetales" },
  { "id": 40, "nombre": "Tepetzintla", "municipio": "Tepetzintla", "region": "Sierra Norte", "lat": 19.9333, "lng": -97.8500, "poblacion": 1200, "tieneTransporte": false, "lengua": "Nahuatl", "referencia": "Cerca de Ahuacatlán" },
  { "id": 41, "nombre": "Hueytamalco", "municipio": "Hueytamalco", "region": "Huasteca", "lat": 20.0922, "lng": -97.2883, "poblacion": 4200, "tieneTransporte": true, "lengua": "Nahuatl", "referencia": "Cerca de las cascadas de San Pedro" },
  { "id": 42, "nombre": "Ayotoxco de Guerrero", "municipio": "Ayotoxco", "region": "Huasteca", "lat": 20.0911, "lng": -97.4089, "poblacion": 2300, "tieneTransporte": false, "lengua": "Nahuatl", "referencia": "Cerca del río Apulco" },
  { "id": 43, "nombre": "Tenampulco", "municipio": "Tenampulco", "region": "Huasteca", "lat": 20.1667, "lng": -97.4000, "poblacion": 1400, "tieneTransporte": false, "lengua": "Nahuatl", "referencia": "Límite norte del estado" },
  { "id": 44, "nombre": "San José Acateno", "municipio": "Acateno", "region": "Huasteca", "lat": 20.1333, "lng": -97.2167, "poblacion": 2500, "tieneTransporte": true, "lengua": "Nahuatl", "referencia": "Zona cítricola cerca de Martínez de la Torre" },
  { "id": 45, "nombre": "Venustiano Carranza", "municipio": "Venustiano Carranza", "region": "Huasteca", "lat": 20.5000, "lng": -97.6667, "poblacion": 18000, "tieneTransporte": true, "lengua": "Nahuatl", "referencia": "Cerca del campo petrolero Agua Fría" },
  { "id": 46, "nombre": "Francisco Z. Mena", "municipio": "Francisco Z. Mena", "region": "Huasteca", "lat": 20.7333, "lng": -97.8500, "poblacion": 3000, "tieneTransporte": false, "lengua": "Nahuatl", "referencia": "Extremo norte de Puebla" },
  { "id": 47, "nombre": "Pantepec", "municipio": "Pantepec", "region": "Huasteca", "lat": 20.5667, "lng": -97.9167, "poblacion": 2000, "tieneTransporte": false, "lengua": "Totonaco", "referencia": "Zona limítrofe con Hidalgo" },
  { "id": 48, "nombre": "Jalpan", "municipio": "Jalpan", "region": "Huasteca", "lat": 20.4667, "lng": -97.9500, "poblacion": 1500, "tieneTransporte": false, "lengua": "Nahuatl", "referencia": "Cerca de la carretera federal México-Tuxpan" },
  { "id": 49, "nombre": "Tlapacoya", "municipio": "Tlapacoya", "region": "Sierra Norte", "lat": 20.1167, "lng": -97.8500, "poblacion": 1100, "tieneTransporte": false, "lengua": "Nahuatl", "referencia": "Zona de montaña alta" },
  { "id": 50, "nombre": "Amixtlán", "municipio": "Amixtlán", "region": "Sierra Norte", "lat": 20.0500, "lng": -97.8000, "poblacion": 800, "tieneTransporte": false, "lengua": "Totonaco", "referencia": "Cerca de San Felipe Tepatlán" },
  { "id": 51, "nombre": "Tepanco de López", "municipio": "Tepanco", "region": "Valles Centrales", "lat": 18.5833, "lng": -97.5667, "poblacion": 5000, "tieneTransporte": true, "lengua": "Nahuatl", "referencia": "Carretera Puebla-Tehuacán" },
  { "id": 52, "nombre": "Santiago Miahuatlán", "municipio": "Santiago Miahuatlán", "region": "Valles Centrales", "lat": 18.5500, "lng": -97.4333, "poblacion": 25000, "tieneTransporte": true, "lengua": "Nahuatl", "referencia": "Famoso por su mole miahuateco" },
  { "id": 53, "nombre": "Chapulco", "municipio": "Chapulco", "region": "Valles Centrales", "lat": 18.6167, "lng": -97.4167, "poblacion": 6000, "tieneTransporte": true, "lengua": "Nahuatl", "referencia": "Zona de cumbres de Majada" },
  { "id": 54, "nombre": "Nicolas Bravo", "municipio": "Nicolas Bravo", "region": "Valles Centrales", "lat": 18.6333, "lng": -97.3000, "poblacion": 3000, "tieneTransporte": false, "lengua": "Nahuatl", "referencia": "Cerca de Azumbilla" },
  { "id": 55, "nombre": "Cañada Morelos", "municipio": "Cañada Morelos", "region": "Valles Centrales", "lat": 18.7333, "lng": -97.4167, "poblacion": 9000, "tieneTransporte": true, "lengua": "Nahuatl", "referencia": "Estación de ferrocarril importante" },
  { "id": 56, "nombre": "Esperanza", "municipio": "Esperanza", "region": "Valles Centrales", "lat": 18.8500, "lng": -97.3833, "poblacion": 14000, "tieneTransporte": true, "lengua": "Nahuatl", "referencia": "Caseta de peaje autopista Puebla-Orizaba" },
  { "id": 57, "nombre": "Atzitzintla", "municipio": "Atzitzintla", "region": "Valles Centrales", "lat": 18.9000, "lng": -97.3333, "poblacion": 3500, "tieneTransporte": false, "lengua": "Nahuatl", "referencia": "Cerca del Gran Telescopio Milimétrico" },
  { "id": 58, "nombre": "Palmar de Bravo", "municipio": "Palmar de Bravo", "region": "Valles Centrales", "lat": 18.8333, "lng": -97.6167, "poblacion": 18000, "tieneTransporte": true, "lengua": "Nahuatl", "referencia": "Zona agrícola de hortalizas" },
  { "id": 59, "nombre": "Quecholac", "municipio": "Quecholac", "region": "Valles Centrales", "lat": 18.9500, "lng": -97.6667, "poblacion": 12000, "tieneTransporte": true, "lengua": "Nahuatl", "referencia": "Cerca del ex-convento franciscano" },
  { "id": 60, "nombre": "Tecamachalco", "municipio": "Tecamachalco", "region": "Valles Centrales", "lat": 18.8833, "lng": -97.7333, "poblacion": 70000, "tieneTransporte": true, "lengua": "Nahuatl", "referencia": "Cerca de la Universidad Tecnológica" },
  { "id": 61, "nombre": "Tepeaca", "municipio": "Tepeaca", "region": "Valles Centrales", "lat": 18.9667, "lng": -97.9000, "poblacion": 80000, "tieneTransporte": true, "lengua": "Nahuatl", "referencia": "Santuario del Niño Doctor y Rollo Colonial" },
  { "id": 62, "nombre": "Acajete", "municipio": "Acajete", "region": "Valles Centrales", "lat": 19.1000, "lng": -97.9500, "poblacion": 25000, "tieneTransporte": true, "lengua": "Nahuatl", "referencia": "Faldas del volcán Malintzi" },
  { "id": 63, "nombre": "Amozoc de Mota", "municipio": "Amozoc", "region": "Valles Centrales", "lat": 19.0500, "lng": -98.0333, "poblacion": 120000, "tieneTransporte": true, "lengua": "Nahuatl", "referencia": "Famoso por espuelas y artesanía de plata" },
  { "id": 64, "nombre": "San Miguel Canoa", "municipio": "Puebla", "region": "Valles Centrales", "lat": 19.1500, "lng": -98.1000, "poblacion": 15000, "tieneTransporte": true, "lengua": "Nahuatl", "referencia": "Ruta de ascenso a la Malintzi" },
  { "id": 65, "nombre": "La Resurrección", "municipio": "Puebla", "region": "Valles Centrales", "lat": 19.1000, "lng": -98.1333, "poblacion": 10000, "tieneTransporte": true, "lengua": "Nahuatl", "referencia": "Zona de canteras y festivales gastronómicos" },
  { "id": 66, "nombre": "San Felipe Hueyotlipan", "municipio": "Puebla", "region": "Valles Centrales", "lat": 19.0833, "lng": -98.2167, "poblacion": 25000, "tieneTransporte": true, "lengua": "Nahuatl", "referencia": "Cerca de la zona industrial de la ciudad" },
  { "id": 67, "nombre": "Cuautlancingo", "municipio": "Cuautlancingo", "region": "Valles Centrales", "lat": 19.0833, "lng": -98.2667, "poblacion": 90000, "tieneTransporte": true, "lengua": "Nahuatl", "referencia": "Cerca de la planta Volkswagen" },
  { "id": 68, "nombre": "Coronango", "municipio": "Coronango", "region": "Valles Centrales", "lat": 19.1333, "lng": -98.3000, "poblacion": 45000, "tieneTransporte": true, "lengua": "Nahuatl", "referencia": "Cerca del centro comercial Outlet" },
  { "id": 69, "nombre": "San Pedro Cholula", "municipio": "Cholula", "region": "Valles Centrales", "lat": 19.0667, "lng": -98.3000, "poblacion": 120000, "tieneTransporte": true, "lengua": "Nahuatl", "referencia": "Junto a la Gran Pirámide" },
  { "id": 70, "nombre": "San Andrés Cholula", "municipio": "Cholula", "region": "Valles Centrales", "lat": 19.0500, "lng": -98.2833, "poblacion": 130000, "tieneTransporte": true, "lengua": "Nahuatl", "referencia": "Zona universitaria y de iglesias coloniales" },
  { "id": 71, "nombre": "Atlixco", "municipio": "Atlixco", "region": "Valles Centrales", "lat": 18.9000, "lng": -98.4333, "poblacion": 140000, "tieneTransporte": true, "lengua": "Nahuatl", "referencia": "Cerca del cerro de San Miguel" },
  { "id": 72, "nombre": "Huaquechula", "municipio": "Huaquechula", "region": "Valles Centrales", "lat": 18.7667, "lng": -98.5500, "poblacion": 3000, "tieneTransporte": true, "lengua": "Nahuatl", "referencia": "Famoso por altares monumentales" },
  { "id": 73, "nombre": "Tochimilco", "municipio": "Tochimilco", "region": "Valles Centrales", "lat": 18.8833, "lng": -98.5667, "poblacion": 3500, "tieneTransporte": false, "lengua": "Nahuatl", "referencia": "Faldas del volcán Popocatépetl" },
  { "id": 74, "nombre": "San Nicolás de los Ranchos", "municipio": "San Nicolás", "region": "Valles Centrales", "lat": 19.0667, "lng": -98.4833, "poblacion": 6000, "tieneTransporte": true, "lengua": "Nahuatl", "referencia": "Zona productora de nuez de Castilla" },
  { "id": 75, "nombre": "Nealtican", "municipio": "Nealtican", "region": "Valles Centrales", "lat": 19.0500, "lng": -98.4333, "poblacion": 12000, "tieneTransporte": true, "lengua": "Nahuatl", "referencia": "Cerca de los campos de cultivo de Cholula" },
  { "id": 76, "nombre": "Tlahuapan", "municipio": "Tlahuapan", "region": "Valles Centrales", "lat": 19.3333, "lng": -98.5833, "poblacion": 4000, "tieneTransporte": true, "lengua": "Nahuatl", "referencia": "Cerca del parque Iztaccíhuatl-Popocatépetl" },
  { "id": 77, "nombre": "San Salvador el Verde", "municipio": "El Verde", "region": "Valles Centrales", "lat": 19.2667, "lng": -98.5167, "poblacion": 5000, "tieneTransporte": true, "lengua": "Nahuatl", "referencia": "Cerca del ex-hacienda de Chautla" },
  { "id": 78, "nombre": "San Martín Texmelucan", "municipio": "Texmelucan", "region": "Valles Centrales", "lat": 19.2833, "lng": -98.4333, "poblacion": 150000, "tieneTransporte": true, "lengua": "Nahuatl", "referencia": "Cerca del mercado de ropa más grande" },
  { "id": 79, "nombre": "San Matías Tlalancaleca", "municipio": "Tlalancaleca", "region": "Valles Centrales", "lat": 19.3167, "lng": -98.5000, "poblacion": 8000, "tieneTransporte": true, "lengua": "Nahuatl", "referencia": "Zona de hallazgos arqueológicos" },
  { "id": 80, "nombre": "Libres", "municipio": "Libres", "region": "Valles Centrales", "lat": 19.4667, "lng": -97.6833, "poblacion": 15000, "tieneTransporte": true, "lengua": "Nahuatl", "referencia": "Zona comercial del centro-oriente" },
  { "id": 81, "nombre": "Oriental", "municipio": "Oriental", "region": "Valles Centrales", "lat": 19.3833, "lng": -97.6167, "poblacion": 10000, "tieneTransporte": true, "lengua": "Nahuatl", "referencia": "Cruce ferroviario y carretera federal" },
  { "id": 82, "nombre": "Cuyuaco", "municipio": "Cuyuaco", "region": "Sierra Nororiental", "lat": 19.6167, "lng": -97.5000, "poblacion": 3000, "tieneTransporte": true, "lengua": "Nahuatl", "referencia": "Cerca de la zona arqueológica de Cantona" },
  { "id": 83, "nombre": "Tepeyahualco", "municipio": "Tepeyahualco", "region": "Sierra Nororiental", "lat": 19.4833, "lng": -97.5000, "poblacion": 2000, "tieneTransporte": false, "lengua": "Nahuatl", "referencia": "Cerca de la Laguna de Alchichica" },
  { "id": 84, "nombre": "Zautla", "municipio": "Zautla", "region": "Sierra Nororiental", "lat": 19.7689, "lng": -97.6628, "poblacion": 1300, "tieneTransporte": false, "lengua": "Nahuatl", "referencia": "Cerca de los talleres de barro rojo" },
  { "id": 85, "nombre": "Zaragoza", "municipio": "Zaragoza", "region": "Sierra Nororiental", "lat": 19.7667, "lng": -97.5500, "poblacion": 12000, "tieneTransporte": true, "lengua": "Nahuatl", "referencia": "Entronque carretera de cuota a Teziutlán" },
  { "id": 86, "nombre": "Tlatlauquitepec", "municipio": "Tlatlauquitepec", "region": "Sierra Nororiental", "lat": 19.8500, "lng": -97.5000, "poblacion": 10000, "tieneTransporte": true, "lengua": "Nahuatl", "referencia": "Cerca del Santuario del Señor del Huaxtla" },
  { "id": 87, "nombre": "Teziutlán", "municipio": "Teziutlán", "region": "Sierra Nororiental", "lat": 19.8167, "lng": -97.3667, "poblacion": 100000, "tieneTransporte": true, "lengua": "Nahuatl", "referencia": "Cerca de la Catedral y mercado Victoria" },
  { "id": 88, "nombre": "Xiutetelco", "municipio": "Xiutetelco", "region": "Sierra Nororiental", "lat": 19.8000, "lng": -97.3333, "poblacion": 8000, "tieneTransporte": true, "lengua": "Nahuatl", "referencia": "Cerca de las pirámides en el centro del pueblo" },
  { "id": 89, "nombre": "Hueyapan", "municipio": "Hueyapan", "region": "Sierra Nororiental", "lat": 19.9000, "lng": -97.4333, "poblacion": 3000, "tieneTransporte": false, "lengua": "Nahuatl", "referencia": "Cuna del chal bordado" },
  { "id": 90, "nombre": "Teteles de Avila Castillo", "municipio": "Teteles", "region": "Sierra Nororiental", "lat": 19.8500, "lng": -97.4500, "poblacion": 2500, "tieneTransporte": true, "lengua": "Nahuatl", "referencia": "Cerca del centro educativo normal" },
  { "id": 91, "nombre": "Atempan", "municipio": "Atempan", "region": "Sierra Nororiental", "lat": 19.8333, "lng": -97.4000, "poblacion": 7000, "tieneTransporte": true, "lengua": "Nahuatl", "referencia": "Cerca del mercado de ganado" },
  { "id": 92, "nombre": "Yaonáhuac", "municipio": "Yaonáhuac", "region": "Sierra Nororiental", "lat": 19.8667, "lng": -97.4500, "poblacion": 1500, "tieneTransporte": false, "lengua": "Nahuatl", "referencia": "Lugar de la gente que camina junta" },
  { "id": 93, "nombre": "Hueytiplan", "municipio": "Tlatlauquitepec", "region": "Sierra Nororiental", "lat": 19.9000, "lng": -97.5167, "poblacion": 1100, "tieneTransporte": false, "lengua": "Nahuatl", "referencia": "Zona de clima templado-húmedo" },
  { "id": 94, "nombre": "Xochitlán de Vicente Suárez", "municipio": "Xochitlán", "region": "Sierra Nororiental", "lat": 19.9667, "lng": -97.6500, "poblacion": 2000, "tieneTransporte": false, "lengua": "Nahuatl", "referencia": "Cerca de las grutas de Santa Elena" },
  { "id": 95, "nombre": "Nauzontla", "municipio": "Nauzontla", "region": "Sierra Nororiental", "lat": 19.9167, "lng": -97.5667, "poblacion": 900, "tieneTransporte": false, "lengua": "Nahuatl", "referencia": "Mirador natural de la sierra" },
  { "id": 96, "nombre": "Xicotlán", "municipio": "Xicotlán", "region": "Mixteca", "lat": 18.0667, "lng": -98.5333, "poblacion": 600, "tieneTransporte": false, "lengua": "Mixteco", "referencia": "Zona de muy difícil acceso en el sur" },
  { "id": 97, "nombre": "Petlalcingo", "municipio": "Petlalcingo", "region": "Mixteca", "lat": 18.0833, "lng": -97.9167, "poblacion": 2500, "tieneTransporte": true, "lengua": "Mixteco", "referencia": "Cerca de la carretera a Oaxaca" },
  { "id": 98, "nombre": "Tecomatlán", "municipio": "Tecomatlán", "region": "Mixteca", "lat": 18.1000, "lng": -98.3167, "poblacion": 3500, "tieneTransporte": true, "lengua": "Nahuatl", "referencia": "Cerca de la Escuela Normal Regional" },
  { "id": 99, "nombre": "Chila de las Flores", "municipio": "Chila", "region": "Mixteca", "lat": 17.9667, "lng": -97.8667, "poblacion": 3000, "tieneTransporte": true, "lengua": "Mixteco", "referencia": "Cerca de la frontera con Oaxaca" },
  { "id": 100, "nombre": "San Jerónimo Xayacatlán", "municipio": "Xayacatlán", "region": "Mixteca", "lat": 18.2167, "lng": -97.9167, "poblacion": 1200, "tieneTransporte": false, "lengua": "Mixteco", "referencia": "Cerca del río Acatlán" },

  { "id": 101, "nombre": "San Andrés Payuca", "municipio": "Cuyuaco", "region": "Sierra Nororiental", "lat": 19.5833, "lng": -97.5500, "poblacion": 2100, "tieneTransporte": false, "lengua": "Nahuatl", "referencia": "Cerca de la exhacienda de Payuca" },
  { "id": 102, "nombre": "Ocotlán de Betancourt", "municipio": "Tlatlauquitepec", "region": "Sierra Nororiental", "lat": 19.8333, "lng": -97.5167, "poblacion": 1800, "tieneTransporte": true, "lengua": "Nahuatl", "referencia": "Camino a Mazatepec, zona de niebla" },
  { "id": 103, "nombre": "San Miguel Tenango", "municipio": "Zacatlánd", "region": "Sierra Norte", "lat": 19.9667, "lng": -97.9167, "poblacion": 2500, "tieneTransporte": false, "lengua": "Nahuatl", "referencia": "Comunidad indígena dedicada al bordado, cerca de la barranca" },
  { "id": 104, "nombre": "Atencingo", "municipio": "Chietla", "region": "Mixteca", "lat": 18.5083, "lng": -98.5833, "poblacion": 12000, "tieneTransporte": true, "lengua": "Nahuatl", "referencia": "Cerca del ingenio azucarero más grande de la región" },
  { "id": 105, "nombre": "Venta Grande", "municipio": "Huauchinango", "region": "Sierra Norte", "lat": 20.1500, "lng": -98.1167, "poblacion": 1400, "tieneTransporte": true, "lengua": "Nahuatl", "referencia": "Punto más alto de la carretera México-Tuxpan en Puebla" },
  { "id": 106, "nombre": "Pahuatlán de Valle", "municipio": "Pahuatlán", "region": "Sierra Norte", "lat": 20.2778, "lng": -98.1508, "poblacion": 3500, "tieneTransporte": true, "lengua": "Otomi", "referencia": "Cerca del puente colgante de Xolotla" },
  { "id": 107, "nombre": "San Baltazar Chichicapam", "municipio": "San Salvador el Seco", "region": "Valles Centrales", "lat": 19.1167, "lng": -97.6333, "poblacion": 900, "tieneTransporte": false, "lengua": "Nahuatl", "referencia": "Cerca de las canteras de piedra volcánica" },
  { "id": 108, "nombre": "Tetela de Ocampo", "municipio": "Tetela de Ocampo", "region": "Sierra Norte Alta", "lat": 19.8167, "lng": -97.8000, "poblacion": 6000, "tieneTransporte": true, "lengua": "Nahuatl", "referencia": "Pueblo Mágico, zona de minas antiguas y cascadas" },
  { "id": 109, "nombre": "San Miguel Ixitlán", "municipio": "Ixitlán", "region": "Mixteca", "lat": 17.9833, "lng": -97.9667, "poblacion": 500, "tieneTransporte": false, "lengua": "Mixteco", "referencia": "Extremo sur del estado, límite con Oaxaca" },
  { "id": 110, "nombre": "San Juan Xiutetelco", "municipio": "Xiutetelco", "region": "Sierra Nororiental", "lat": 19.8000, "lng": -97.3333, "poblacion": 35000, "tieneTransporte": true, "lengua": "Nahuatl", "referencia": "Cerca de los túneles antiguos bajo la iglesia" },
  { "id": 111, "nombre": "Chichiquila", "municipio": "Chichiquila", "region": "Valles Centrales", "lat": 19.2000, "lng": -97.0500, "poblacion": 2500, "tieneTransporte": false, "lengua": "Nahuatl", "referencia": "Zona montañosa fronteriza con Veracruz" },
  { "id": 112, "nombre": "Quimixtlán", "municipio": "Quimixtlán", "region": "Valles Centrales", "lat": 19.2500, "lng": -97.1333, "poblacion": 3800, "tieneTransporte": false, "lengua": "Nahuatl", "referencia": "Cerca del río Huitzilapan y cultivos de aguacate" },
  { "id": 113, "nombre": "Alchichica", "municipio": "Tepeyahualco", "region": "Sierra Nororiental", "lat": 19.4167, "lng": -97.3833, "poblacion": 2800, "tieneTransporte": true, "lengua": "Nahuatl", "referencia": "Frente a la laguna salada de Alchichica" },
  { "id": 114, "nombre": "Zongozotla", "municipio": "Zongozotla", "region": "Sierra Norte", "lat": 20.0000, "lng": -97.7167, "poblacion": 4500, "tieneTransporte": true, "lengua": "Totonaco", "referencia": "Principal productor de café orgánico de la zona" },
  { "id": 115, "nombre": "Nauzontla", "municipio": "Nauzontla", "region": "Sierra Nororiental", "lat": 19.9167, "lng": -97.5667, "poblacion": 1200, "tieneTransporte": false, "lengua": "Nahuatl", "referencia": "Cerca de la iglesia de la Inmaculada Concepción" },
  { "id": 116, "nombre": "Zoquiapan", "municipio": "Zoquiapan", "region": "Sierra Norte", "lat": 20.0000, "lng": -97.5833, "poblacion": 800, "tieneTransporte": false, "lengua": "Totonaco", "referencia": "Comunidad pequeña cerca de Cuetzalan" },
  { "id": 117, "nombre": "Atlequizayan", "municipio": "Atlequizayan", "region": "Sierra Norte", "lat": 20.0333, "lng": -97.6333, "poblacion": 1100, "tieneTransporte": false, "lengua": "Totonaco", "referencia": "Zona escarpada de la sierra norte" },
  { "id": 118, "nombre": "Ixtepec", "municipio": "Ixtepec", "region": "Sierra Norte", "lat": 20.0333, "lng": -97.6500, "poblacion": 2300, "tieneTransporte": false, "lengua": "Totonaco", "referencia": "Cerca del río Apulco" },
  { "id": 119, "nombre": "Camocuautla", "municipio": "Camocuautla", "region": "Sierra Norte", "lat": 20.0333, "lng": -97.7667, "poblacion": 1500, "tieneTransporte": false, "lengua": "Totonaco", "referencia": "Zona de alta marginación, cerca de Coatepec" },
  { "id": 120, "nombre": "Coatepec", "municipio": "Coatepec", "region": "Sierra Norte", "lat": 20.0500, "lng": -97.7167, "poblacion": 800, "tieneTransporte": false, "lengua": "Totonaco", "referencia": "Cerca de los cerros de Olintla" },
  { "id": 121, "nombre": "Hermenegildo Galeana", "municipio": "Galeana", "region": "Sierra Norte", "lat": 20.1167, "lng": -97.7333, "poblacion": 1200, "tieneTransporte": false, "lengua": "Totonaco", "referencia": "Zona cafetalera profunda" },
  { "id": 122, "nombre": "San Felipe Tepatlán", "municipio": "Tepatlán", "region": "Sierra Norte", "lat": 20.1167, "lng": -97.8000, "poblacion": 1400, "tieneTransporte": false, "lengua": "Totonaco", "referencia": "Cerca del río Ajajalpan" },
  { "id": 123, "nombre": "Amixtlán", "municipio": "Amixtlán", "region": "Sierra Norte", "lat": 20.0500, "lng": -97.8167, "poblacion": 900, "tieneTransporte": false, "lengua": "Totonaco", "referencia": "En la cumbre de la montaña" },
  { "id": 124, "nombre": "San Juan Galindo", "municipio": "Huauchinango", "region": "Sierra Norte", "lat": 20.2167, "lng": -98.0000, "poblacion": 2500, "tieneTransporte": true, "lengua": "Nahuatl", "referencia": "Cerca del túnel de la hidroeléctrica" },
  { "id": 125, "nombre": "Tenango de las Flores", "municipio": "Huauchinango", "region": "Sierra Norte", "lat": 20.2000, "lng": -98.0000, "poblacion": 6000, "tieneTransporte": true, "lengua": "Nahuatl", "referencia": "Cerca de la presa de Tenango, zona de viveros" },
  { "id": 126, "nombre": "Ahuacatlán", "municipio": "Ahuacatlán", "region": "Sierra Norte Alta", "lat": 20.0000, "lng": -97.8500, "poblacion": 3000, "tieneTransporte": true, "lengua": "Nahuatl", "referencia": "Cerca de la cascada de San Pedro" },
  { "id": 127, "nombre": "Tepango de Rodríguez", "municipio": "Tepango", "region": "Sierra Norte", "lat": 20.0000, "lng": -97.8000, "poblacion": 1800, "tieneTransporte": false, "lengua": "Totonaco", "referencia": "Acceso por camino de terracería desde Zacatlán" },
  { "id": 128, "nombre": "San Felipe Otlaltepec", "municipio": "Tepexi de Rodríguez", "region": "Mixteca", "lat": 18.4500, "lng": -97.9167, "poblacion": 2800, "tieneTransporte": false, "lengua": "Popoloca", "referencia": "Importante centro de lengua Popoloca" },
  { "id": 129, "nombre": "San Pablo Ahuatempan", "municipio": "Santa Isabel Cholula", "region": "Valles Centrales", "lat": 18.9833, "lng": -98.3667, "poblacion": 1500, "tieneTransporte": true, "lengua": "Nahuatl", "referencia": "Cerca de la carretera federal a Atlixco" },
  { "id": 130, "nombre": "Santa María Tonantzintla", "municipio": "San Andrés Cholula", "region": "Valles Centrales", "lat": 19.0333, "lng": -98.3167, "poblacion": 2500, "tieneTransporte": true, "lengua": "Nahuatl", "referencia": "Junto a la iglesia del barroco indígena" },
  { "id": 131, "nombre": "San Francisco Acatepec", "municipio": "San Andrés Cholula", "region": "Valles Centrales", "lat": 19.0167, "lng": -98.3000, "poblacion": 2200, "tieneTransporte": true, "lengua": "Nahuatl", "referencia": "Cerca de la iglesia de mosaicos de talavera" },
  { "id": 132, "nombre": "Metepec", "municipio": "Atlixco", "region": "Valles Centrales", "lat": 18.9500, "lng": -98.4667, "poblacion": 5500, "tieneTransporte": true, "lengua": "Nahuatl", "referencia": "Cerca del centro vacacional IMSS" },
  { "id": 133, "nombre": "San Pedro Benito Juárez", "municipio": "Atlixco", "region": "Valles Centrales", "lat": 18.9667, "lng": -98.5333, "poblacion": 3200, "tieneTransporte": false, "lengua": "Nahuatl", "referencia": "Comunidad más cercana al cráter del Popocatépetl" },
  { "id": 134, "nombre": "Axocopan", "municipio": "Atlixco", "region": "Valles Centrales", "lat": 18.9000, "lng": -98.4833, "poblacion": 2000, "tieneTransporte": true, "lengua": "Nahuatl", "referencia": "Famoso por sus balnearios de agua de manantial" },
  { "id": 135, "nombre": "San Jerónimo Coyula", "municipio": "Atlixco", "region": "Valles Centrales", "lat": 18.8667, "lng": -98.5000, "poblacion": 4000, "tieneTransporte": true, "lengua": "Nahuatl", "referencia": "Zona productora de granos y hortalizas" },
  { "id": 136, "nombre": "Tochimilco", "municipio": "Tochimilco", "region": "Valles Centrales", "lat": 18.8914, "lng": -98.5728, "poblacion": 3200, "tieneTransporte": true, "lengua": "Nahuatl", "referencia": "Cerca del ex-convento franciscano del siglo XVI" },
  { "id": 137, "nombre": "San Juan Tianguismanalco", "municipio": "Tianguismanalco", "region": "Valles Centrales", "lat": 18.9833, "lng": -98.4333, "poblacion": 6500, "tieneTransporte": true, "lengua": "Nahuatl", "referencia": "Cerca de la zona de ovnis (Punto Marconi)" },
  { "id": 138, "nombre": "Santa Isabel Cholula", "municipio": "Santa Isabel Cholula", "region": "Valles Centrales", "lat": 18.9958, "lng": -98.3775, "poblacion": 9000, "tieneTransporte": true, "lengua": "Nahuatl", "referencia": "Camino a Atlixco" },
  { "id": 139, "nombre": "San Gregorio Atzompa", "municipio": "Atzompa", "region": "Valles Centrales", "lat": 19.0208, "lng": -98.3500, "poblacion": 8000, "tieneTransporte": true, "lengua": "Nahuatl", "referencia": "Cerca de la zona de Chipilo" },
  { "id": 140, "nombre": "Chipilo de Francisco Javier Mina", "municipio": "Atzompa", "region": "Valles Centrales", "lat": 19.0039, "lng": -98.3308, "poblacion": 4000, "tieneTransporte": true, "lengua": "Veneto", "referencia": "Famoso por sus quesos y dialecto véneto" },
  { "id": 141, "nombre": "San Miguel Emiliano Zapata", "municipio": "Cuyoaco", "region": "Sierra Nororiental", "lat": 19.6167, "lng": -97.6333, "poblacion": 1100, "tieneTransporte": false, "lengua": "Nahuatl", "referencia": "Cerca de las vías del tren" },
  { "id": 142, "nombre": "San Juan Atenco", "municipio": "San Juan Atenco", "region": "Valles Centrales", "lat": 19.0333, "lng": -97.5333, "poblacion": 3000, "tieneTransporte": false, "lengua": "Nahuatl", "referencia": "Zona de lagunas estacionales" },
  { "id": 143, "nombre": "Aljojuca", "municipio": "Aljojuca", "region": "Valles Centrales", "lat": 19.1000, "lng": -97.5333, "poblacion": 4500, "tieneTransporte": true, "lengua": "Nahuatl", "referencia": "Junto al cráter volcánico (maar) con laguna" },
  { "id": 144, "nombre": "San Nicolás de los Ranchos", "municipio": "San Nicolás", "region": "Valles Centrales", "lat": 19.0719, "lng": -98.4811, "poblacion": 10000, "tieneTransporte": true, "lengua": "Nahuatl", "referencia": "Cerca de la salida a Paso de Cortés" },
  { "id": 145, "nombre": "Santiago Xalitzintla", "municipio": "San Nicolás", "region": "Valles Centrales", "lat": 19.0778, "lng": -98.5208, "poblacion": 2500, "tieneTransporte": false, "lengua": "Nahuatl", "referencia": "Comunidad más cercana al Popocatépetl, zona de 'Don Goyo'" },
  { "id": 146, "nombre": "San Buenaventura Nealtican", "municipio": "Nealtican", "region": "Valles Centrales", "lat": 19.0522, "lng": -98.4331, "poblacion": 14000, "tieneTransporte": true, "lengua": "Nahuatl", "referencia": "Zona de huertas de ciruela y pera" },
  { "id": 147, "nombre": "Santa María Zacatepec", "municipio": "Juan C. Bonilla", "region": "Valles Centrales", "lat": 19.1239, "lng": -98.3614, "poblacion": 5000, "tieneTransporte": true, "lengua": "Nahuatl", "referencia": "Cerca de la zona donde apareció el socavón" },
  { "id": 148, "nombre": "San Lucas Nexticapan", "municipio": "Juan C. Bonilla", "region": "Valles Centrales", "lat": 19.1000, "lng": -98.3333, "poblacion": 1800, "tieneTransporte": true, "lengua": "Nahuatl", "referencia": "Cerca de la zona industrial de Huejotzingo" },
  { "id": 149, "nombre": "San Mateo Cuanalá", "municipio": "Juan C. Bonilla", "region": "Valles Centrales", "lat": 19.1167, "lng": -98.3333, "poblacion": 3200, "tieneTransporte": true, "lengua": "Nahuatl", "referencia": "Cerca de la carretera federal a México" },
  { "id": 150, "nombre": "Santa Ana Xalmimilulco", "municipio": "Huejotzingo", "region": "Valles Centrales", "lat": 19.2167, "lng": -98.3833, "poblacion": 16000, "tieneTransporte": true, "lengua": "Nahuatl", "referencia": "Famoso por su industria láctea y quesos" },
  { "id": 151, "nombre": "San Miguel Tianguizolco", "municipio": "Huejotzingo", "region": "Valles Centrales", "lat": 19.1833, "lng": -98.4500, "poblacion": 2500, "tieneTransporte": false, "lengua": "Nahuatl", "referencia": "Faldas del Iztaccíhuatl, zona de sidras" },
  { "id": 152, "nombre": "San Luis Coyotzingo", "municipio": "Huejotzingo", "region": "Valles Centrales", "lat": 19.2333, "lng": -98.4333, "poblacion": 4000, "tieneTransporte": true, "lengua": "Nahuatl", "referencia": "Zona productora de tejocote" },
  { "id": 153, "nombre": "Santa María Atexcac", "municipio": "Huejotzingo", "region": "Valles Centrales", "lat": 19.2000, "lng": -98.5000, "poblacion": 1500, "tieneTransporte": false, "lengua": "Nahuatl", "referencia": "Cerca de los límites con el parque nacional" },
  { "id": 154, "nombre": "San Mateo Capultitlán", "municipio": "Huejotzingo", "region": "Valles Centrales", "lat": 19.1833, "lng": -98.4000, "poblacion": 3800, "tieneTransporte": true, "lengua": "Nahuatl", "referencia": "Cerca del aeropuerto de Puebla" },
  { "id": 155, "nombre": "Xicoténcatl", "municipio": "Chietla", "region": "Mixteca", "lat": 18.4667, "lng": -98.6333, "poblacion": 1200, "tieneTransporte": false, "lengua": "Nahuatl", "referencia": "Zona cañera del sur" },
  { "id": 156, "nombre": "San Juan Raboso", "municipio": "Izúcar", "region": "Mixteca", "lat": 18.5667, "lng": -98.4167, "poblacion": 4500, "tieneTransporte": true, "lengua": "Nahuatl", "referencia": "Cruce de carreteras hacia Cuautla" },
  { "id": 157, "nombre": "Ayutla", "municipio": "Izúcar", "region": "Mixteca", "lat": 18.6000, "lng": -98.4333, "poblacion": 2000, "tieneTransporte": true, "lengua": "Nahuatl", "referencia": "Cerca del balneario Agua de Carbono" },
  { "id": 158, "nombre": "Tatoxcac", "municipio": "Zacapoaxtla", "region": "Sierra Nororiental", "lat": 19.8833, "lng": -97.5833, "poblacion": 3000, "tieneTransporte": true, "lengua": "Nahuatl", "referencia": "Cuna de la indumentaria típica zacapoaxtleca" },
  { "id": 159, "nombre": "Xalacapan", "municipio": "Zacapoaxtla", "region": "Sierra Nororiental", "lat": 19.8500, "lng": -97.5667, "poblacion": 5000, "tieneTransporte": true, "lengua": "Nahuatl", "referencia": "Cerca de la cascada de la Gloria" },
  { "id": 160, "nombre": "San Francisco Ixtacamaxtitlán", "municipio": "Ixtacamaxtitlán", "region": "Sierra Norte Alta", "lat": 19.6167, "lng": -97.8333, "poblacion": 2500, "tieneTransporte": false, "lengua": "Nahuatl", "referencia": "Cabecera de uno de los municipios más extensos" },
  { "id": 161, "nombre": "Oyameles de Hidalgo", "municipio": "Tlatlauquitepec", "region": "Sierra Nororiental", "lat": 19.7500, "lng": -97.5167, "poblacion": 2200, "tieneTransporte": false, "lengua": "Nahuatl", "referencia": "Zona de producción de manzana y pera" },
  { "id": 162, "nombre": "Mazatepec", "municipio": "Tlatlauquitepec", "region": "Sierra Nororiental", "lat": 19.9333, "lng": -97.4667, "poblacion": 1500, "tieneTransporte": false, "lengua": "Nahuatl", "referencia": "Cerca de la planta hidroeléctrica Mazatepec" },
  { "id": 163, "nombre": "Eloxochitlán", "municipio": "Eloxochitlán", "region": "Sierra Negra", "lat": 18.4833, "lng": -96.9333, "poblacion": 1800, "tieneTransporte": false, "lengua": "Nahuatl", "referencia": "Zona de selva alta y café" },
  { "id": 164, "nombre": "Tlacotepec de Benito Juárez", "municipio": "Tlacotepec", "region": "Valles Centrales", "lat": 18.6500, "lng": -97.6500, "poblacion": 15000, "tieneTransporte": true, "lengua": "Popoloca", "referencia": "Santuario del Señor del Calvario" },
  { "id": 165, "nombre": "San Gabriel Tetzoyocan", "municipio": "Yehualtepec", "region": "Valles Centrales", "lat": 18.7833, "lng": -97.7167, "poblacion": 6000, "tieneTransporte": true, "lengua": "Nahuatl", "referencia": "Cerca del canal de Valsequillo" },
  { "id": 166, "nombre": "San Bartolo Teontepec", "municipio": "Tepanco", "region": "Valles Centrales", "lat": 18.5333, "lng": -97.5833, "poblacion": 5500, "tieneTransporte": true, "lengua": "Nahuatl", "referencia": "Zona arqueológica de la cultura mesoamericana" },
  { "id": 167, "nombre": "San Sebastián Zinacatepec", "municipio": "Zinacatepec", "region": "Sierra Negra", "lat": 18.3333, "lng": -97.1833, "poblacion": 12000, "tieneTransporte": true, "lengua": "Nahuatl", "referencia": "Valle de Tehuacán, zona agrícola" },
  { "id": 168, "nombre": "Coxcatlán", "municipio": "Coxcatlán", "region": "Sierra Negra", "lat": 18.2667, "lng": -97.1500, "poblacion": 9000, "tieneTransporte": true, "lengua": "Nahuatl", "referencia": "Cuna del maíz (Cueva de Coxcatlán)" },
  { "id": 169, "nombre": "Tilapa", "municipio": "Tilapa", "region": "Mixteca", "lat": 18.5833, "lng": -98.5500, "poblacion": 5000, "tieneTransporte": true, "lengua": "Nahuatl", "referencia": "Zona cañera cerca de Izúcar" },
  { "id": 170, "nombre": "Atzala", "municipio": "Atzala", "region": "Mixteca", "lat": 18.5500, "lng": -98.5500, "poblacion": 1100, "tieneTransporte": false, "lengua": "Nahuatl", "referencia": "Pueblo pequeño cerca de Chietla" },
  { "id": 171, "nombre": "Zapaltitlán", "municipio": "Zapotitlán", "region": "Sierra Negra", "lat": 18.3000, "lng": -97.4667, "poblacion": 2500, "tieneTransporte": true, "lengua": "Nahuatl", "referencia": "Zona de fósiles marinos y salineras" },
  { "id": 172, "nombre": "Caltepec", "municipio": "Caltepec", "region": "Mixteca", "lat": 18.1833, "lng": -97.4833, "poblacion": 1200, "tieneTransporte": false, "lengua": "Nahuatl", "referencia": "Zona de reserva de la biósfera Tehuacán-Cuicatlán" },
  { "id": 173, "nombre": "Ahuehuetitla", "municipio": "Ahuehuetitla", "region": "Mixteca", "lat": 18.2167, "lng": -98.2167, "poblacion": 2000, "tieneTransporte": false, "lengua": "Nahuatl", "referencia": "Zona seca de la mixteca poblana" },
  { "id": 174, "nombre": "Chinantla", "municipio": "Chinantla", "region": "Mixteca", "lat": 18.1833, "lng": -98.2500, "poblacion": 2500, "tieneTransporte": true, "lengua": "Nahuatl", "referencia": "Cerca del río Piaxtla" },
  { "id": 175, "nombre": "Tehuitzingo", "municipio": "Tehuitzingo", "region": "Mixteca", "lat": 18.3300, "lng": -98.2700, "poblacion": 6000, "tieneTransporte": true, "lengua": "Nahuatl", "referencia": "Famoso por su pozole y pitayas" },
  { "id": 176, "nombre": "Zolotepec", "municipio": "Xicotepec", "region": "Sierra Norte", "lat": 20.3000, "lng": -97.9333, "poblacion": 1100, "tieneTransporte": false, "lengua": "Nahuatl", "referencia": "Zona de cafetales y neblina" },
  { "id": 177, "nombre": "Gilberto Camacho", "municipio": "Xicotepec", "region": "Sierra Norte", "lat": 20.3500, "lng": -97.8667, "poblacion": 3000, "tieneTransporte": true, "lengua": "Nahuatl", "referencia": "Cerca de la carretera federal Pachuca-Tuxpan" },
  { "id": 178, "nombre": "Villa Lázaro Cárdenas (La Uno)", "municipio": "Venustiano Carranza", "region": "Huasteca", "lat": 20.4500, "lng": -97.6833, "poblacion": 15000, "tieneTransporte": true, "lengua": "Nahuatl", "referencia": "Punto comercial importante de la huasteca poblana" },
  { "id": 179, "nombre": "Tlacuilotepec", "municipio": "Tlacuilotepec", "region": "Sierra Norte Alta", "lat": 20.3500, "lng": -98.0500, "poblacion": 1500, "tieneTransporte": false, "lengua": "Nahuatl", "referencia": "Zona ganadera de la sierra alta" },
  { "id": 180, "nombre": "Zihuateutla", "municipio": "Zihuateutla", "region": "Sierra Norte Alta", "lat": 20.2500, "lng": -97.8833, "poblacion": 900, "tieneTransporte": false, "lengua": "Nahuatl", "referencia": "Acceso por camino de montaña" },
  { "id": 181, "nombre": "Tepatlán", "municipio": "San Felipe Tepatlán", "region": "Sierra Norte Alta", "lat": 20.1333, "lng": -97.8333, "poblacion": 1200, "tieneTransporte": false, "lengua": "Totonaco", "referencia": "Zona indígena totonaca pura" },
  { "id": 182, "nombre": "Amixtlán", "municipio": "Amixtlán", "region": "Sierra Norte Alta", "lat": 20.0667, "lng": -97.8167, "poblacion": 1100, "tieneTransporte": false, "lengua": "Totonaco", "referencia": "Cerca de Tepango" },
  { "id": 183, "nombre": "Coatepec", "municipio": "Coatepec", "region": "Sierra Norte Alta", "lat": 20.0667, "lng": -97.7333, "poblacion": 700, "tieneTransporte": false, "lengua": "Totonaco", "referencia": "Bosque mesófilo de montaña" },
  { "id": 184, "nombre": "Zongozotla", "municipio": "Zongozotla", "region": "Sierra Norte Alta", "lat": 19.9833, "lng": -97.7167, "poblacion": 4000, "tieneTransporte": true, "lengua": "Totonaco", "referencia": "Cerca de Huitzilan de Serdán" },
  { "id": 185, "nombre": "Huitzilan de Serdán", "municipio": "Huitzilan", "region": "Sierra Norte Alta", "lat": 19.9667, "lng": -97.6833, "poblacion": 15000, "tieneTransporte": true, "lengua": "Nahuatl", "referencia": "Lugar de colibríes, zona de lucha social y café" },
  { "id": 186, "nombre": "Zapotitlán de Méndez", "municipio": "Zapotitlán de Méndez", "region": "Sierra Norte", "lat": 20.0000, "lng": -97.7167, "poblacion": 4500, "tieneTransporte": true, "lengua": "Totonaco", "referencia": "Cerca de las grutas de Karmidas" },
  { "id": 187, "nombre": "Nanacatlán", "municipio": "Zapotitlán de Méndez", "region": "Sierra Norte", "lat": 20.0167, "lng": -97.7000, "poblacion": 1200, "tieneTransporte": false, "lengua": "Totonaco", "referencia": "Pueblo de hongos, zona muy húmeda" },
  { "id": 188, "nombre": "Tuzamapan de Galeana", "municipio": "Tuzamapan", "region": "Sierra Norte", "lat": 20.0667, "lng": -97.5833, "poblacion": 3000, "tieneTransporte": true, "lengua": "Totonaco", "referencia": "Tierra de los voladores de Tuzamapan" },
  { "id": 189, "nombre": "Reyes de Juárez", "municipio": "Reyes de Juárez", "region": "Valles Centrales", "lat": 18.9500, "lng": -97.8500, "poblacion": 25000, "tieneTransporte": true, "lengua": "Nahuatl", "referencia": "Principal centro de hortalizas del estado" },
  { "id": 190, "nombre": "Cuapiaxtla de Madero", "municipio": "Cuapiaxtla", "region": "Valles Centrales", "lat": 18.9167, "lng": -97.8167, "poblacion": 10000, "tieneTransporte": true, "lengua": "Nahuatl", "referencia": "Zona de paso entre Tepeaca y Tecamachalco" },
  { "id": 191, "nombre": "San Salvador Huixcolotla", "municipio": "Huixcolotla", "region": "Valles Centrales", "lat": 18.9167, "lng": -97.7667, "poblacion": 15000, "tieneTransporte": true, "lengua": "Nahuatl", "referencia": "Cuna del papel picado y gran central de abasto" },
  { "id": 192, "nombre": "Tochtepec", "municipio": "Tochtepec", "region": "Valles Centrales", "lat": 18.8333, "lng": -97.8333, "poblacion": 12000, "tieneTransporte": true, "lengua": "Nahuatl", "referencia": "Zona agrícola del valle de Tecamachalco" },
  { "id": 193, "nombre": "Tlanepantla", "municipio": "Tlanepantla", "region": "Valles Centrales", "lat": 18.8500, "lng": -97.8833, "poblacion": 4000, "tieneTransporte": false, "lengua": "Nahuatl", "referencia": "Cerca de Santo Tomás Hueyotlipan" },
  { "id": 194, "nombre": "Tepeyahualco de Cuauhtémoc", "municipio": "Tepeyahualco", "region": "Valles Centrales", "lat": 18.8167, "lng": -97.8500, "poblacion": 3500, "tieneTransporte": true, "lengua": "Nahuatl", "referencia": "Cerca de la carretera federal a Tehuacán" },
  { "id": 195, "nombre": "Tlalixaquia", "municipio": "Chichiquila", "region": "Valles Centrales", "lat": 19.2167, "lng": -97.0333, "poblacion": 1100, "tieneTransporte": false, "lengua": "Nahuatl", "referencia": "Zona de alta montaña, límite estatal" },
  { "id": 196, "nombre": "Xochiapulco", "municipio": "Xochiapulco", "region": "Sierra Nororiental", "lat": 19.8333, "lng": -97.6500, "poblacion": 4000, "tieneTransporte": false, "lengua": "Nahuatl", "referencia": "Tierra de los Sextos Batallones de la Batalla del 5 de mayo" },
  { "id": 197, "nombre": "Cuetzalan del Progreso", "municipio": "Cuetzalan", "region": "Sierra Norte", "lat": 20.0185, "lng": -97.5212, "poblacion": 45000, "tieneTransporte": true, "lengua": "Nahuatl", "referencia": "Cerca del mercado de artesanías y la iglesia de los jarritos" },
  { "id": 198, "nombre": "Yohualichan", "municipio": "Cuetzalan", "region": "Sierra Norte", "lat": 20.0617, "lng": -97.5025, "poblacion": 1200, "tieneTransporte": false, "lengua": "Nahuatl", "referencia": "Junto a la zona arqueológica de los nichos" },
  { "id": 199, "nombre": "Santiago Yancuitlalpan", "municipio": "Cuetzalan", "region": "Sierra Norte", "lat": 20.0333, "lng": -97.4500, "poblacion": 3500, "tieneTransporte": false, "lengua": "Nahuatl", "referencia": "Cerca del río Apulco, zona de producción de pimienta" },
  { "id": 200, "nombre": "San Miguel Tzinacapan", "municipio": "Cuetzalan", "region": "Sierra Norte", "lat": 20.0167, "lng": -97.5500, "poblacion": 2800, "tieneTransporte": false, "lengua": "Nahuatl", "referencia": "Cerca de la biblioteca y el centro cultural indígena" },


  { "id": 201, "nombre": "San Miguel Zinacantepec", "municipio": "Zinacantepec", "region": "Sierra Negra", "lat": 18.3333, "lng": -97.1833, "poblacion": 12500, "tieneTransporte": true, "lengua": "Nahuatl", "referencia": "Valle de Tehuacán, zona de cultivos de hortalizas" },
  { "id": 202, "nombre": "San Francisco Totimehuacan", "municipio": "Puebla", "region": "Valles Centrales", "lat": 18.9667, "lng": -98.1667, "poblacion": 18500, "tieneTransporte": true, "lengua": "Nahuatl", "referencia": "Junta auxiliar al sur de la ciudad, famosa por sus carnitas" },
  { "id": 203, "nombre": "San Jerónimo Caleras", "municipio": "Puebla", "region": "Valles Centrales", "lat": 19.1000, "lng": -98.2167, "poblacion": 25000, "tieneTransporte": true, "lengua": "Nahuatl", "referencia": "Salida norte de la ciudad de Puebla, cerca de la autopista" },
  { "id": 204, "nombre": "San Felipe Hueyotlipan", "municipio": "Puebla", "region": "Valles Centrales", "lat": 19.0833, "lng": -98.2167, "poblacion": 22000, "tieneTransporte": true, "lengua": "Nahuatl", "referencia": "Cerca de la antigua estación de tren de Puebla" },
  { "id": 205, "nombre": "Ignacio Romero Vargas", "municipio": "Puebla", "region": "Valles Centrales", "lat": 19.0667, "lng": -98.2500, "poblacion": 30000, "tieneTransporte": true, "lengua": "Nahuatl", "referencia": "Cerca del puente de México y el río Atoyac" },
  { "id": 206, "nombre": "San Pablo Xochimehuacán", "municipio": "Puebla", "region": "Valles Centrales", "lat": 19.1000, "lng": -98.1833, "poblacion": 28000, "tieneTransporte": true, "lengua": "Nahuatl", "referencia": "Zona norte industrial, cerca de la Vía Corta a Tlaxcala" },
  { "id": 207, "nombre": "Santa María Xonacatepec", "municipio": "Puebla", "region": "Valles Centrales", "lat": 19.0667, "lng": -98.1000, "poblacion": 15000, "tieneTransporte": true, "lengua": "Nahuatl", "referencia": "Faldas del volcán Malintzi, zona de viveros" },
  { "id": 208, "nombre": "San Francisco Ocotepec", "municipio": "Libres", "region": "Valles Centrales", "lat": 19.4667, "lng": -97.7167, "poblacion": 1200, "tieneTransporte": false, "lengua": "Nahuatl", "referencia": "Cerca de los llanos de San Juan" },
  { "id": 209, "nombre": "San José Morelos", "municipio": "Libres", "region": "Valles Centrales", "lat": 19.4833, "lng": -97.6500, "poblacion": 1500, "tieneTransporte": false, "lengua": "Nahuatl", "referencia": "Zona productora de quesos de Libres" },
  { "id": 210, "nombre": "La Cañada", "municipio": "Libres", "region": "Valles Centrales", "lat": 19.4500, "lng": -97.6333, "poblacion": 900, "tieneTransporte": false, "lengua": "Nahuatl", "referencia": "Cerca de la carretera federal a Oriental" },
  { "id": 211, "nombre": "Ixtacamaxtitlán", "municipio": "Ixtacamaxtitlán", "region": "Sierra Norte Alta", "lat": 19.6167, "lng": -97.8333, "poblacion": 2500, "tieneTransporte": true, "lengua": "Nahuatl", "referencia": "Zona montañosa, cerca del río Apulco" },
  { "id": 212, "nombre": "Almoya", "municipio": "Ixtacamaxtitlán", "region": "Sierra Norte Alta", "lat": 19.5833, "lng": -97.8000, "poblacion": 1100, "tieneTransporte": false, "lengua": "Nahuatl", "referencia": "Zona de bosques de pino de la sierra alta" },
  { "id": 213, "nombre": "Capilla de los Remedios", "municipio": "Ixtacamaxtitlán", "region": "Sierra Norte Alta", "lat": 19.6333, "lng": -97.7833, "poblacion": 800, "tieneTransporte": false, "lengua": "Nahuatl", "referencia": "Cerca de la zona minera antigua" },
  { "id": 214, "nombre": "Atexcac", "municipio": "Guadalupe Victoria", "region": "Valles Centrales", "lat": 19.3333, "lng": -97.4500, "poblacion": 1200, "tieneTransporte": false, "lengua": "Nahuatl", "referencia": "Junto a la laguna de cráter de Atexcac" },
  { "id": 215, "nombre": "Quechulac", "municipio": "Guadalupe Victoria", "region": "Valles Centrales", "lat": 19.3667, "lng": -97.4167, "poblacion": 1500, "tieneTransporte": false, "lengua": "Nahuatl", "referencia": "Cerca del volcán inactivo de Guadalupe Victoria" },
  { "id": 216, "nombre": "La Preciosa", "municipio": "Guadalupe Victoria", "region": "Valles Centrales", "lat": 19.3833, "lng": -97.3833, "poblacion": 950, "tieneTransporte": false, "lengua": "Nahuatl", "referencia": "Cerca de la laguna salada de Alchichica" },
  { "id": 217, "nombre": "Santiago Miahuatlán", "municipio": "Santiago Miahuatlán", "region": "Valles Centrales", "lat": 18.5417, "lng": -97.4375, "poblacion": 28000, "tieneTransporte": true, "lengua": "Nahuatl", "referencia": "Cerca del centro, famoso por el chile miahuateco" },
  { "id": 218, "nombre": "Azumbilla", "municipio": "Nicolas Bravo", "region": "Valles Centrales", "lat": 18.6333, "lng": -97.3333, "poblacion": 4500, "tieneTransporte": true, "lengua": "Nahuatl", "referencia": "Cruce de caminos hacia Tehuacán y Orizaba" },
  { "id": 219, "nombre": "San Gabriel Chilac", "municipio": "Chilac", "region": "Sierra Negra", "lat": 18.3333, "lng": -97.3333, "poblacion": 16000, "tieneTransporte": true, "lengua": "Nahuatl", "referencia": "Zona de manantiales y bordado artesanal" },
  { "id": 220, "nombre": "San José Miahuatlán", "municipio": "San José Miahuatlán", "region": "Sierra Negra", "lat": 18.2333, "lng": -97.2833, "poblacion": 12000, "tieneTransporte": true, "lengua": "Nahuatl", "referencia": "Zona de clima seco, famosa por sus canastos de palma" },
  { "id": 221, "nombre": "San José Axuxco", "municipio": "San José Miahuatlán", "region": "Sierra Negra", "lat": 18.1833, "lng": -97.2333, "poblacion": 1800, "tieneTransporte": false, "lengua": "Nahuatl", "referencia": "Cerca del río Tehuacán, zona muy calurosa" },
  { "id": 222, "nombre": "Coxcatlán", "municipio": "Coxcatlán", "region": "Sierra Negra", "lat": 18.2667, "lng": -97.1500, "poblacion": 8500, "tieneTransporte": true, "lengua": "Nahuatl", "referencia": "Cerca de la zona arqueológica de la Cueva de Coxcatlán" },
  { "id": 223, "nombre": "Calipan", "municipio": "Coxcatlán", "region": "Sierra Negra", "lat": 18.2500, "lng": -97.1667, "poblacion": 4000, "tieneTransporte": true, "lengua": "Nahuatl", "referencia": "Cerca del ingenio azucarero de Calipan" },
  { "id": 224, "nombre": "Tilapa", "municipio": "Coxcatlán", "region": "Sierra Negra", "lat": 18.2167, "lng": -97.1167, "poblacion": 1200, "tieneTransporte": false, "lengua": "Nahuatl", "referencia": "Acceso por camino real a la sierra" },
  { "id": 225, "nombre": "Pueblo Nuevo", "municipio": "Coxcatlán", "region": "Sierra Negra", "lat": 18.2333, "lng": -97.1000, "poblacion": 900, "tieneTransporte": false, "lengua": "Nahuatl", "referencia": "Zona de cafetales bajos" },
  { "id": 226, "nombre": "Coyomeapan", "municipio": "Coyomeapan", "region": "Sierra Negra", "lat": 18.2667, "lng": -97.0167, "poblacion": 3500, "tieneTransporte": false, "lengua": "Nahuatl", "referencia": "Cerca del palacio municipal en la cima del cerro" },
  { "id": 227, "nombre": "San Juan Cuautla", "municipio": "Coyomeapan", "region": "Sierra Negra", "lat": 18.2333, "lng": -97.0500, "poblacion": 1100, "tieneTransporte": false, "lengua": "Nahuatl", "referencia": "Zona de neblina permanente" },
  { "id": 228, "nombre": "Zoquitlán", "municipio": "Zoquitlán", "region": "Sierra Negra", "lat": 18.3333, "lng": -97.0167, "poblacion": 4000, "tieneTransporte": false, "lengua": "Nahuatl", "referencia": "Centro de la sierra alta, zona de difícil acceso" },
  { "id": 229, "nombre": "San Pablo Zoquitlán", "municipio": "Zoquitlán", "region": "Sierra Negra", "lat": 18.3167, "lng": -97.0333, "poblacion": 1500, "tieneTransporte": false, "lengua": "Nahuatl", "referencia": "Cerca de las cascadas de Zoquitlán" },
  { "id": 230, "nombre": "Xitlama", "municipio": "Zoquitlán", "region": "Sierra Negra", "lat": 18.3000, "lng": -97.0000, "poblacion": 800, "tieneTransporte": false, "lengua": "Nahuatl", "referencia": "Zona fronteriza con la selva de Veracruz" },
  { "id": 231, "nombre": "San Sebastian Tlacotepec", "municipio": "Tlacotepec", "region": "Sierra Negra", "lat": 18.4000, "lng": -96.7833, "poblacion": 1200, "tieneTransporte": false, "lengua": "Nahuatl", "referencia": "Punto más lejano de la Sierra Negra poblana" },
  { "id": 232, "nombre": "Tzacualtitla", "municipio": "Tlacotepec", "region": "Sierra Negra", "lat": 18.4167, "lng": -96.7500, "poblacion": 700, "tieneTransporte": false, "lengua": "Nahuatl", "referencia": "Selva húmeda, cerca del río Tonto" },
  { "id": 233, "nombre": "Altepexi", "municipio": "Altepexi", "region": "Sierra Negra", "lat": 18.3667, "lng": -97.3000, "poblacion": 21000, "tieneTransporte": true, "lengua": "Nahuatl", "referencia": "Cerca de las fábricas de ropa del valle" },
  { "id": 234, "nombre": "Zinacatepec", "municipio": "Zinacatepec", "region": "Sierra Negra", "lat": 18.3333, "lng": -97.1833, "poblacion": 15000, "tieneTransporte": true, "lengua": "Nahuatl", "referencia": "Cerca de la iglesia de San Sebastián" },
  { "id": 235, "nombre": "San Luis Atolotitlán", "municipio": "Caltepec", "region": "Mixteca", "lat": 18.1833, "lng": -97.4167, "poblacion": 1400, "tieneTransporte": false, "lengua": "Nahuatl", "referencia": "Cerca de la reserva de la biósfera, zona de mezcal" },
  { "id": 236, "nombre": "Caltepec", "municipio": "Caltepec", "region": "Mixteca", "lat": 18.1500, "lng": -97.4833, "poblacion": 900, "tieneTransporte": false, "lengua": "Nahuatl", "referencia": "Cañón de Caltepec, zona de palmas" },
  { "id": 237, "nombre": "Zapotitlán Salinas", "municipio": "Zapotitlán", "region": "Mixteca", "lat": 18.3267, "lng": -97.4783, "poblacion": 2500, "tieneTransporte": true, "lengua": "Nahuatl", "referencia": "Junto a las salineras prehispánicas" },
  { "id": 238, "nombre": "San Pedro Atzumba", "municipio": "Zapotitlán", "region": "Mixteca", "lat": 18.3000, "lng": -97.5167, "poblacion": 1100, "tieneTransporte": false, "lengua": "Nahuatl", "referencia": "Zona de cactáceas gigantes" },
  { "id": 239, "nombre": "Santa Ana Coatepec", "municipio": "Huaquechula", "region": "Valles Centrales", "lat": 18.7500, "lng": -98.4500, "poblacion": 1800, "tieneTransporte": true, "lengua": "Nahuatl", "referencia": "Cerca de los campos de flor de cempasúchil" },
  { "id": 240, "nombre": "Huaquechula", "municipio": "Huaquechula", "region": "Valles Centrales", "lat": 18.7667, "lng": -98.5500, "poblacion": 4000, "tieneTransporte": true, "lengua": "Nahuatl", "referencia": "Cerca del ex-convento de San Martín Caballero" },
  { "id": 241, "nombre": "San Juan Ocotepec", "municipio": "Atlixco", "region": "Valles Centrales", "lat": 18.9833, "lng": -98.5000, "poblacion": 1500, "tieneTransporte": false, "lengua": "Nahuatl", "referencia": "Faldas del volcán, zona de encinos" },
  { "id": 242, "nombre": "La Magdalena Axocopan", "municipio": "Atlixco", "region": "Valles Centrales", "lat": 18.9000, "lng": -98.4833, "poblacion": 3000, "tieneTransporte": true, "lengua": "Nahuatl", "referencia": "Famosa por su cecina y agua de manantial" },
  { "id": 243, "nombre": "San Juan Tejaluca", "municipio": "Atlixco", "region": "Valles Centrales", "lat": 18.9167, "lng": -98.4167, "poblacion": 1200, "tieneTransporte": true, "lengua": "Nahuatl", "referencia": "Zona de viveros de flores" },
  { "id": 244, "nombre": "Santo Domingo Atoyatempan", "municipio": "Atlixco", "region": "Valles Centrales", "lat": 18.8833, "lng": -98.4000, "poblacion": 1100, "tieneTransporte": false, "lengua": "Nahuatl", "referencia": "Cerca del río Nexapa" },
  { "id": 245, "nombre": "San Jerónimo Coyula", "municipio": "Atlixco", "region": "Valles Centrales", "lat": 18.8667, "lng": -98.5000, "poblacion": 5500, "tieneTransporte": true, "lengua": "Nahuatl", "referencia": "Zona agrícola camino a Tochimilco" },
  { "id": 246, "nombre": "Tochimilco", "municipio": "Tochimilco", "region": "Valles Centrales", "lat": 18.8914, "lng": -98.5728, "poblacion": 4500, "tieneTransporte": true, "lengua": "Nahuatl", "referencia": "Centro del pueblo, cerca de la fuente colonial" },
  { "id": 247, "nombre": "Alpanocan", "municipio": "Tochimilco", "region": "Valles Centrales", "lat": 18.8667, "lng": -98.6500, "poblacion": 2500, "tieneTransporte": false, "lengua": "Nahuatl", "referencia": "Límite con Morelos, zona de aguacates" },
  { "id": 248, "nombre": "San Miguel Tecuanipa", "municipio": "Tochimilco", "region": "Valles Centrales", "lat": 18.9167, "lng": -98.5333, "poblacion": 1800, "tieneTransporte": false, "lengua": "Nahuatl", "referencia": "Zona de clima frío, faldas del Popocatépetl" },
  { "id": 249, "nombre": "Cuilotepec", "municipio": "Tochimilco", "region": "Valles Centrales", "lat": 18.9000, "lng": -98.5500, "poblacion": 900, "tieneTransporte": false, "lengua": "Nahuatl", "referencia": "Cerca del camino forestal" },
  { "id": 250, "nombre": "Xochitlán Todos Santos", "municipio": "Xochitlán", "region": "Valles Centrales", "lat": 18.7000, "lng": -97.7833, "poblacion": 3500, "tieneTransporte": true, "lengua": "Nahuatl", "referencia": "Cerca del canal de riego de Valsequillo" },
  { "id": 251, "nombre": "Yehualtepec", "municipio": "Yehualtepec", "region": "Valles Centrales", "lat": 18.7833, "lng": -97.7667, "poblacion": 9000, "tieneTransporte": true, "lengua": "Nahuatl", "referencia": "Zona comercial de granos y ganado" },
  { "id": 252, "nombre": "Tlacotepec de Benito Juárez", "municipio": "Tlacotepec", "region": "Valles Centrales", "lat": 18.6667, "lng": -97.6333, "poblacion": 18000, "tieneTransporte": true, "lengua": "Popoloca", "referencia": "Cerca del cerro de las tres cruces" },
  { "id": 253, "nombre": "San Marcos Tlacoyalco", "municipio": "Tlacotepec", "region": "Valles Centrales", "lat": 18.6167, "lng": -97.5833, "poblacion": 11000, "tieneTransporte": true, "lengua": "Popoloca", "referencia": "Principal comunidad de habla Nguiwa (Popoloca)" },
  { "id": 254, "nombre": "Palmar de Bravo", "municipio": "Palmar", "region": "Valles Centrales", "lat": 18.8333, "lng": -97.6167, "poblacion": 15000, "tieneTransporte": true, "lengua": "Nahuatl", "referencia": "Cerca de la autopista Puebla-Orizaba" },
  { "id": 255, "nombre": "Cuesta Blanca", "municipio": "Palmar", "region": "Valles Centrales", "lat": 18.8000, "lng": -97.5500, "poblacion": 3500, "tieneTransporte": true, "lengua": "Nahuatl", "referencia": "Zona de paso de transportistas" },
  { "id": 256, "nombre": "Cuapiaxtla de Madero", "municipio": "Cuapiaxtla", "region": "Valles Centrales", "lat": 18.9167, "lng": -97.8167, "poblacion": 12000, "tieneTransporte": true, "lengua": "Nahuatl", "referencia": "Carretera federal a Tehuacán" },
  { "id": 257, "nombre": "San Salvador Huixcolotla", "municipio": "Huixcolotla", "region": "Valles Centrales", "lat": 18.9167, "lng": -97.7667, "poblacion": 14000, "tieneTransporte": true, "lengua": "Nahuatl", "referencia": "Central de abastos de la región, zona de papel picado" },
  { "id": 258, "nombre": "Los Reyes de Juárez", "municipio": "Reyes", "region": "Valles Centrales", "lat": 18.9500, "lng": -97.8500, "poblacion": 25000, "tieneTransporte": true, "lengua": "Nahuatl", "referencia": "Zona de empacadoras de hortalizas" },
  { "id": 259, "nombre": "Acatzingo de Hidalgo", "municipio": "Acatzingo", "region": "Valles Centrales", "lat": 18.9833, "lng": -97.7833, "poblacion": 55000, "tieneTransporte": true, "lengua": "Nahuatl", "referencia": "Cerca del convento de San Juan Evangelista" },
  { "id": 260, "nombre": "San Sebastián Villanueva", "municipio": "Acatzingo", "region": "Valles Centrales", "lat": 19.0333, "lng": -97.7333, "poblacion": 8000, "tieneTransporte": true, "lengua": "Nahuatl", "referencia": "Tierra de la tuna y el nopal" },
  { "id": 261, "nombre": "Quecholac", "municipio": "Quecholac", "region": "Valles Centrales", "lat": 18.9500, "lng": -97.6667, "poblacion": 12000, "tieneTransporte": true, "lengua": "Nahuatl", "referencia": "Cerca de la parroquia de Santa María Magdalena" },
  { "id": 262, "nombre": "Palmarito Tochapan", "municipio": "Quecholac", "region": "Valles Centrales", "lat": 18.9167, "lng": -97.6333, "poblacion": 16000, "tieneTransporte": true, "lengua": "Nahuatl", "referencia": "Zona agrícola, cerca de la autopista" },
  { "id": 263, "nombre": "Felipe Angeles", "municipio": "General Felipe Angeles", "region": "Valles Centrales", "lat": 19.0167, "lng": -97.6833, "poblacion": 6000, "tieneTransporte": true, "lengua": "Nahuatl", "referencia": "Cerca del municipio de Quecholac" },
  { "id": 264, "nombre": "San Pablo de las Tunas", "municipio": "Felipe Angeles", "region": "Valles Centrales", "lat": 19.0333, "lng": -97.6667, "poblacion": 4500, "tieneTransporte": true, "lengua": "Nahuatl", "referencia": "Zona de producción intensiva de nopal" },
  { "id": 265, "nombre": "Soltepec", "municipio": "Soltepec", "region": "Valles Centrales", "lat": 19.1167, "lng": -97.7167, "poblacion": 6500, "tieneTransporte": true, "lengua": "Nahuatl", "referencia": "Zona ferroviaria antigua" },
  { "id": 266, "nombre": "Mazapiltepec de Juárez", "municipio": "Mazapiltepec", "region": "Valles Centrales", "lat": 19.1167, "lng": -97.6833, "poblacion": 2500, "tieneTransporte": false, "lengua": "Nahuatl", "referencia": "Cerca de San Salvador el Seco" },
  { "id": 267, "nombre": "San Salvador el Seco", "municipio": "El Seco", "region": "Valles Centrales", "lat": 19.1333, "lng": -97.6333, "poblacion": 22000, "tieneTransporte": true, "lengua": "Nahuatl", "referencia": "Cerca del cerro de malpaís" },
  { "id": 268, "nombre": "Aljojuca", "municipio": "Aljojuca", "region": "Valles Centrales", "lat": 19.1000, "lng": -97.5333, "poblacion": 4500, "tieneTransporte": true, "lengua": "Nahuatl", "referencia": "Junto a la laguna en el cráter" },
  { "id": 269, "nombre": "San Miguel Tecuitlapa", "municipio": "Aljojuca", "region": "Valles Centrales", "lat": 19.0833, "lng": -97.5000, "poblacion": 1200, "tieneTransporte": false, "lengua": "Nahuatl", "referencia": "Cerca de la zona de volcanes inactivos" },
  { "id": 270, "nombre": "San Nicolás de los Ranchos", "municipio": "San Nicolás", "region": "Valles Centrales", "lat": 19.0719, "lng": -98.4811, "poblacion": 10000, "tieneTransporte": true, "lengua": "Nahuatl", "referencia": "Camino hacia el Paso de Cortés" },
  { "id": 271, "nombre": "Santiago Xalitzintla", "municipio": "San Nicolás", "region": "Valles Centrales", "lat": 19.0778, "lng": -98.5208, "poblacion": 3000, "tieneTransporte": true, "lengua": "Nahuatl", "referencia": "Comunidad con vista directa al volcán" },
  { "id": 272, "nombre": "San Pedro Yancuitlalpan", "municipio": "San Nicolás", "region": "Valles Centrales", "lat": 19.0833, "lng": -98.4667, "poblacion": 2500, "tieneTransporte": true, "lengua": "Nahuatl", "referencia": "Zona productora de nuez y fruta" },
  { "id": 273, "nombre": "Nealtican", "municipio": "Nealtican", "region": "Valles Centrales", "lat": 19.0522, "lng": -98.4331, "poblacion": 15000, "tieneTransporte": true, "lengua": "Nahuatl", "referencia": "Cerca de las huertas de manzana" },
  { "id": 274, "nombre": "San Jerónimo Tecuanipan", "municipio": "Tecuanipan", "region": "Valles Centrales", "lat": 19.0167, "lng": -98.4167, "poblacion": 4000, "tieneTransporte": true, "lengua": "Nahuatl", "referencia": "Cerca de San Gregorio Atzompa" },
  { "id": 275, "nombre": "Santa María Tianguistenco", "municipio": "Tecuanipan", "region": "Valles Centrales", "lat": 19.0333, "lng": -98.4333, "poblacion": 1200, "tieneTransporte": false, "lengua": "Nahuatl", "referencia": "Zona de cultivo de temporal" },
  { "id": 276, "nombre": "Calpan", "municipio": "Calpan", "region": "Valles Centrales", "lat": 19.1000, "lng": -98.4667, "poblacion": 14000, "tieneTransporte": true, "lengua": "Nahuatl", "referencia": "Cerca del ex-convento de San Francisco de Asís" },
  { "id": 277, "nombre": "San Lucas Atzala", "municipio": "Calpan", "region": "Valles Centrales", "lat": 19.1167, "lng": -98.4833, "poblacion": 2500, "tieneTransporte": true, "lengua": "Nahuatl", "referencia": "Cuna del mole de chiles en nogada" },
  { "id": 278, "nombre": "San Mateo Ozolco", "municipio": "Calpan", "region": "Valles Centrales", "lat": 19.1000, "lng": -98.5167, "poblacion": 3000, "tieneTransporte": false, "lengua": "Nahuatl", "referencia": "Zona de alta montaña, famosa por el pulque" },
  { "id": 279, "nombre": "Tlahuapan", "municipio": "Santa Rita Tlahuapan", "region": "Valles Centrales", "lat": 19.3333, "lng": -98.5833, "poblacion": 12000, "tieneTransporte": true, "lengua": "Nahuatl", "referencia": "Cerca de la zona de truchas del Izta-Popo" },
  { "id": 280, "nombre": "San Rafael Ixtapalucan", "municipio": "Tlahuapan", "region": "Valles Centrales", "lat": 19.3167, "lng": -98.5333, "poblacion": 4500, "tieneTransporte": true, "lengua": "Nahuatl", "referencia": "Famoso por la producción de calcetines" },
  { "id": 281, "nombre": "San Matías Tlalancaleca", "municipio": "Tlalancaleca", "region": "Valles Centrales", "lat": 19.3167, "lng": -98.5000, "poblacion": 15000, "tieneTransporte": true, "lengua": "Nahuatl", "referencia": "Zona arqueológica de la cultura Olmeca-Xicalanca" },
  { "id": 282, "nombre": "Juárez Coronaco", "municipio": "Tlalancaleca", "region": "Valles Centrales", "lat": 19.3333, "lng": -98.5167, "poblacion": 3000, "tieneTransporte": true, "lengua": "Nahuatl", "referencia": "Cerca de los límites con Tlaxcala" },
  { "id": 283, "nombre": "San Salvador el Verde", "municipio": "El Verde", "region": "Valles Centrales", "lat": 19.2667, "lng": -98.5167, "poblacion": 18000, "tieneTransporte": true, "lengua": "Nahuatl", "referencia": "Cerca del centro del pueblo y el río" },
  { "id": 284, "nombre": "San Simón Atzitzintla", "municipio": "El Verde", "region": "Valles Centrales", "lat": 19.2500, "lng": -98.5000, "poblacion": 4000, "tieneTransporte": true, "lengua": "Nahuatl", "referencia": "Zona de huertas frutales" },
  { "id": 285, "nombre": "San Lucas El Grande", "municipio": "El Verde", "region": "Valles Centrales", "lat": 19.2333, "lng": -98.4667, "poblacion": 9000, "tieneTransporte": true, "lengua": "Nahuatl", "referencia": "Carretera federal México-Puebla" },
  { "id": 286, "nombre": "Chiautzingo", "municipio": "San Lorenzo Chiautzingo", "region": "Valles Centrales", "lat": 19.2000, "lng": -98.4667, "poblacion": 12000, "tieneTransporte": true, "lengua": "Nahuatl", "referencia": "Zona de ex-haciendas" },
  { "id": 287, "nombre": "San Nicolás Zecalacoayan", "municipio": "Chiautzingo", "region": "Valles Centrales", "lat": 19.1833, "lng": -98.4833, "poblacion": 3500, "tieneTransporte": false, "lengua": "Nahuatl", "referencia": "Cerca de las faldas del volcán Iztaccíhuatl" },
  { "id": 288, "nombre": "Huejotzingo", "municipio": "Huejotzingo", "region": "Valles Centrales", "lat": 19.1583, "lng": -98.4111, "poblacion": 75000, "tieneTransporte": true, "lengua": "Nahuatl", "referencia": "Cerca del zócalo, famoso por su carnaval y sidra" },
  { "id": 289, "nombre": "Santa Ana Xalmimilulco", "municipio": "Huejotzingo", "region": "Valles Centrales", "lat": 19.2167, "lng": -98.3833, "poblacion": 18000, "tieneTransporte": true, "lengua": "Nahuatl", "referencia": "Cerca del parque industrial Quetzalcóatl" },
  { "id": 290, "nombre": "San Miguel Tianguizolco", "municipio": "Huejotzingo", "region": "Valles Centrales", "lat": 19.1833, "lng": -98.4500, "poblacion": 2800, "tieneTransporte": false, "lengua": "Nahuatl", "referencia": "Zona de producción de tejocote" },
  { "id": 291, "nombre": "Juan C. Bonilla", "municipio": "Juan C. Bonilla", "region": "Valles Centrales", "lat": 19.1000, "lng": -98.3333, "poblacion": 10000, "tieneTransporte": true, "lengua": "Nahuatl", "referencia": "Cerca de la Universidad Politécnica de Puebla" },
  { "id": 292, "nombre": "Santa María Zacatepec", "municipio": "Juan C. Bonilla", "region": "Valles Centrales", "lat": 19.1167, "lng": -98.3500, "poblacion": 6000, "tieneTransporte": true, "lengua": "Nahuatl", "referencia": "Lugar conocido por el socavón de 2021" },
  { "id": 293, "nombre": "Tlaltenango", "municipio": "Tlaltenango", "region": "Valles Centrales", "lat": 19.1667, "lng": -98.3333, "poblacion": 6500, "tieneTransporte": true, "lengua": "Nahuatl", "referencia": "Cerca de la autopista México-Puebla" },
  { "id": 294, "nombre": "San Miguel Xoxtla", "municipio": "Xoxtla", "region": "Valles Centrales", "lat": 19.1667, "lng": -98.3000, "poblacion": 12000, "tieneTransporte": true, "lengua": "Nahuatl", "referencia": "Cerca de la planta de acero Ternium" },
  { "id": 295, "nombre": "Coronango", "municipio": "Coronango", "region": "Valles Centrales", "lat": 19.1333, "lng": -98.3000, "poblacion": 45000, "tieneTransporte": true, "lengua": "Nahuatl", "referencia": "Zona de fraccionamientos residenciales" },
  { "id": 296, "nombre": "San Francisco Ocotlán", "municipio": "Coronango", "region": "Valles Centrales", "lat": 19.1167, "lng": -98.2833, "poblacion": 8000, "tieneTransporte": true, "lengua": "Nahuatl", "referencia": "Cerca de la plaza comercial Outlet" },
  { "id": 297, "nombre": "Cuautlancingo", "municipio": "Cuautlancingo", "region": "Valles Centrales", "lat": 19.0833, "lng": -98.2667, "poblacion": 90000, "tieneTransporte": true, "lengua": "Nahuatl", "referencia": "Cerca del complejo industrial VW" },
  { "id": 298, "nombre": "San Lorenzo Almecatla", "municipio": "Cuautlancingo", "region": "Valles Centrales", "lat": 19.1333, "lng": -98.2500, "poblacion": 12000, "tieneTransporte": true, "lengua": "Nahuatl", "referencia": "Cerca de la zona fabril y el río Atoyac" },
  { "id": 299, "nombre": "San Andrés Cholula", "municipio": "San Andrés Cholula", "region": "Valles Centrales", "lat": 19.0500, "lng": -98.2833, "poblacion": 140000, "tieneTransporte": true, "lengua": "Nahuatl", "referencia": "Cerca del centro histórico y la zona de bares" },
  { "id": 300, "nombre": "San Bernardino Tlaxcalancingo", "municipio": "San Andrés Cholula", "region": "Valles Centrales", "lat": 19.0167, "lng": -98.2667, "poblacion": 55000, "tieneTransporte": true, "lengua": "Nahuatl", "referencia": "Cerca de la carretera federal a Atlixco, zona de nopal" },

  { "id": 301, "nombre": "San Pedro Tlaquilpa", "municipio": "Huauchinango", "region": "Sierra Norte", "lat": 20.1833, "lng": -98.0833, "poblacion": 1100, "tieneTransporte": false, "lengua": "Nahuatl", "referencia": "Cerca del cerro de Madroño, zona de niebla espesa" },
  { "id": 302, "nombre": "Cuacuila", "municipio": "Huauchinango", "region": "Sierra Norte", "lat": 20.1500, "lng": -98.0333, "poblacion": 2800, "tieneTransporte": true, "lengua": "Nahuatl", "referencia": "Famoso por su tamal de ollita, cerca del mirador" },
  { "id": 303, "nombre": "Xapanapa", "municipio": "Huauchinango", "region": "Sierra Norte", "lat": 20.1333, "lng": -98.0167, "poblacion": 850, "tieneTransporte": false, "lengua": "Nahuatl", "referencia": "Cerca de la orilla de la presa de Tenango" },
  { "id": 304, "nombre": "Papatlatla", "municipio": "Huauchinango", "region": "Sierra Norte", "lat": 20.2167, "lng": -98.0667, "poblacion": 1500, "tieneTransporte": false, "lengua": "Nahuatl", "referencia": "Zona boscosa, acceso por camino de piedra" },
  { "id": 305, "nombre": "Ahuacatlán", "municipio": "Huauchinango", "region": "Sierra Norte", "lat": 20.2333, "lng": -98.0500, "poblacion": 900, "tieneTransporte": false, "lengua": "Nahuatl", "referencia": "Cerca del río Texcapapa" },
  { "id": 306, "nombre": "Nopatlan", "municipio": "Huauchinango", "region": "Sierra Norte", "lat": 20.1667, "lng": -98.0833, "poblacion": 1200, "tieneTransporte": true, "lengua": "Nahuatl", "referencia": "Cerca de la salida a Tulancingo" },
  { "id": 307, "nombre": "Atlatongo", "municipio": "Huauchinango", "region": "Sierra Norte", "lat": 20.2000, "lng": -98.0333, "poblacion": 600, "tieneTransporte": false, "lengua": "Nahuatl", "referencia": "Zona de huertas de azalea" },
  { "id": 308, "nombre": "Tlacomulco", "municipio": "Huauchinango", "region": "Sierra Norte", "lat": 20.1833, "lng": -98.0167, "poblacion": 1100, "tieneTransporte": false, "lengua": "Nahuatl", "referencia": "Vista a la presa Necaxa" },
  { "id": 309, "nombre": "Xilocuautla", "municipio": "Huauchinango", "region": "Sierra Norte", "lat": 20.1333, "lng": -98.0667, "poblacion": 1300, "tieneTransporte": false, "lengua": "Nahuatl", "referencia": "Cerca del cerro Xiloxochitl" },
  { "id": 310, "nombre": "Matlaluca", "municipio": "Huauchinango", "region": "Sierra Norte", "lat": 20.2500, "lng": -98.0333, "poblacion": 700, "tieneTransporte": false, "lengua": "Nahuatl", "referencia": "Zona de cafetales de altura" },
  { "id": 311, "nombre": "San Miguel Tenango", "municipio": "Zacatlán", "region": "Sierra Norte", "lat": 19.9500, "lng": -97.8833, "poblacion": 3200, "tieneTransporte": false, "lengua": "Nahuatl", "referencia": "Famoso por sus bordados artesanales y clima muy frío" },
  { "id": 312, "nombre": "Xonotla", "municipio": "Zacatlán", "region": "Sierra Norte", "lat": 19.9833, "lng": -97.8500, "poblacion": 1800, "tieneTransporte": false, "lengua": "Nahuatl", "referencia": "Cerca de la cascada de San Pedro Celaya" },
  { "id": 313, "nombre": "Jicolapa", "municipio": "Zacatlán", "region": "Sierra Norte", "lat": 19.9500, "lng": -97.9667, "poblacion": 2500, "tieneTransporte": true, "lengua": "Nahuatl", "referencia": "Cerca del templo del Señor de Jicolapa, zona de sidras" },
  { "id": 314, "nombre": "Tomatlán", "municipio": "Zacatlán", "region": "Sierra Norte", "lat": 19.9167, "lng": -97.9833, "poblacion": 3000, "tieneTransporte": true, "lengua": "Nahuatl", "referencia": "Cerca del puente de piedra y la zona de cascadas" },
  { "id": 315, "nombre": "Atzingo", "municipio": "Zacatlán", "region": "Sierra Norte", "lat": 19.9500, "lng": -98.0000, "poblacion": 1500, "tieneTransporte": true, "lengua": "Nahuatl", "referencia": "Cerca de la laguna de Chignahuapan" },
  { "id": 316, "nombre": "Camotepec", "municipio": "Zacatlán", "region": "Sierra Norte Alta", "lat": 19.9833, "lng": -98.0333, "poblacion": 1100, "tieneTransporte": false, "lengua": "Nahuatl", "referencia": "Zona de bosque de coníferas, cerca del Valle de Piedras Encimadas" },
  { "id": 317, "nombre": "Rancho Nuevo", "municipio": "Zacatlán", "region": "Sierra Norte Alta", "lat": 20.0000, "lng": -98.0500, "poblacion": 450, "tieneTransporte": false, "lengua": "Nahuatl", "referencia": "Entrada al parque de Piedras Encimadas" },
  { "id": 318, "nombre": "Ahuacatlán", "municipio": "Zacatlán", "region": "Sierra Norte", "lat": 20.0167, "lng": -97.9167, "poblacion": 1400, "tieneTransporte": false, "lengua": "Nahuatl", "referencia": "Cerca de la zona de barrancas" },
  { "id": 319, "nombre": "Tlalixtlipa", "municipio": "Zacatlán", "region": "Sierra Norte", "lat": 20.0333, "lng": -97.9000, "poblacion": 800, "tieneTransporte": false, "lengua": "Nahuatl", "referencia": "Zona de difícil acceso, vista a la sierra" },
  { "id": 320, "nombre": "San Cristóbal Xochimilpa", "municipio": "Zacatlán", "region": "Sierra Norte", "lat": 20.0667, "lng": -97.8667, "poblacion": 1200, "tieneTransporte": false, "lengua": "Nahuatl", "referencia": "Zona limítrofe con Huauchinango" },
  { "id": 321, "nombre": "Zapotitlán de Méndez", "municipio": "Zapotitlán", "region": "Totonacapan", "lat": 20.0000, "lng": -97.7167, "poblacion": 3500, "tieneTransporte": true, "lengua": "Totonaco", "referencia": "Junto al puente del río Zempoala y las grutas de Karmidas" },
  { "id": 322, "nombre": "Nanacatlán", "municipio": "Zapotitlán de Méndez", "region": "Totonacapan", "lat": 20.0167, "lng": -97.7000, "poblacion": 900, "tieneTransporte": false, "lengua": "Totonaco", "referencia": "Comunidad totonaca cerca del río" },
  { "id": 323, "nombre": "Tuxtla", "municipio": "Zapotitlán de Méndez", "region": "Totonacapan", "lat": 20.0333, "lng": -97.6833, "poblacion": 1100, "tieneTransporte": false, "lengua": "Totonaco", "referencia": "Zona de cafetales y selva media" },
  { "id": 324, "nombre": "Huitzilan de Serdán", "municipio": "Huitzilan", "region": "Sierra Norte Alta", "lat": 19.9667, "lng": -97.6833, "poblacion": 8000, "tieneTransporte": true, "lengua": "Nahuatl", "referencia": "Cerca del centro, zona de colibríes" },
  { "id": 325, "nombre": "Totutla", "municipio": "Huitzilan de Serdán", "region": "Sierra Norte Alta", "lat": 19.9833, "lng": -97.6500, "poblacion": 1500, "tieneTransporte": false, "lengua": "Nahuatl", "referencia": "Zona de alta montaña y café" },
  { "id": 326, "nombre": "Zongozotla", "municipio": "Zongozotla", "region": "Totonacapan", "lat": 20.0000, "lng": -97.7333, "poblacion": 4200, "tieneTransporte": true, "lengua": "Totonaco", "referencia": "Capital del café orgánico en la sierra" },
  { "id": 327, "nombre": "Huitzila", "municipio": "Tuzamapan de Galeana", "region": "Totonacapan", "lat": 20.1000, "lng": -97.5500, "poblacion": 600, "tieneTransporte": false, "lengua": "Totonaco", "referencia": "Cerca de la ribera del río Cempoala" },
  { "id": 328, "nombre": "Reyesogpan", "municipio": "Cuetzalan", "region": "Sierra Norte", "lat": 20.0333, "lng": -97.5500, "poblacion": 1300, "tieneTransporte": false, "lengua": "Nahuatl", "referencia": "Zona de orquídeas y café" },
  { "id": 329, "nombre": "Xiloxochico", "municipio": "Cuetzalan", "region": "Sierra Norte", "lat": 19.9833, "lng": -97.4833, "poblacion": 1800, "tieneTransporte": false, "lengua": "Nahuatl", "referencia": "Cerca del centro ceremonial de Yohualichan" },
  { "id": 330, "nombre": "Yancuitlalpan", "municipio": "Cuetzalan", "region": "Sierra Norte", "lat": 20.0500, "lng": -97.4667, "poblacion": 2500, "tieneTransporte": false, "lengua": "Nahuatl", "referencia": "Zona baja de Cuetzalan, clima cálido húmedo" },
  { "id": 331, "nombre": "Tzinacapan", "municipio": "Cuetzalan", "region": "Sierra Norte", "lat": 20.0167, "lng": -97.5500, "poblacion": 3000, "tieneTransporte": true, "lengua": "Nahuatl", "referencia": "Cuna de la danza de los Quetzales" },
  { "id": 332, "nombre": "Tzicuilan", "municipio": "Cuetzalan", "region": "Sierra Norte", "lat": 20.0000, "lng": -97.5333, "poblacion": 2200, "tieneTransporte": true, "lengua": "Totonaco", "referencia": "Cerca de la cascada de Las Brisas" },
  { "id": 333, "nombre": "Zonotzostla", "municipio": "Cuetzalan", "region": "Sierra Norte", "lat": 20.0667, "lng": -97.4333, "poblacion": 1200, "tieneTransporte": false, "lengua": "Nahuatl", "referencia": "Límite con Ayotoxco de Guerrero" },
  { "id": 334, "nombre": "Ahuacatlán", "municipio": "Ahuacatlán", "region": "Sierra Norte Alta", "lat": 20.0000, "lng": -97.8500, "poblacion": 3500, "tieneTransporte": true, "lengua": "Nahuatl", "referencia": "Cerca de la parroquia de San Juan Bautista" },
  { "id": 335, "nombre": "Xochitlán de Vicente Suárez", "municipio": "Xochitlán", "region": "Sierra Norte", "lat": 19.9667, "lng": -97.6500, "poblacion": 2800, "tieneTransporte": true, "lengua": "Nahuatl", "referencia": "Zona de grutas y cuevas ancestrales" },
  { "id": 336, "nombre": "Huahuaxtla", "municipio": "Xochitlán", "region": "Sierra Norte", "lat": 19.9333, "lng": -97.6333, "poblacion": 1500, "tieneTransporte": true, "lengua": "Nahuatl", "referencia": "Cerca de la carretera a Zacapoaxtla" },
  { "id": 337, "nombre": "Nauzontla", "municipio": "Nauzontla", "region": "Sierra Nororiental", "lat": 19.9167, "lng": -97.5667, "poblacion": 3800, "tieneTransporte": true, "lengua": "Nahuatl", "referencia": "Pueblo en la ladera del cerro, vista al valle" },
  { "id": 338, "nombre": "Tatoxcac", "municipio": "Zacapoaxtla", "region": "Sierra Nororiental", "lat": 19.8833, "lng": -97.5833, "poblacion": 4200, "tieneTransporte": true, "lengua": "Nahuatl", "referencia": "Cerca de la entrada norte de Zacapoaxtla" },
  { "id": 339, "nombre": "Xalacapan", "municipio": "Zacapoaxtla", "region": "Sierra Nororiental", "lat": 19.8500, "lng": -97.5667, "poblacion": 3500, "tieneTransporte": true, "lengua": "Nahuatl", "referencia": "Zona de manantiales y clima frío" },
  { "id": 340, "nombre": "Atliaca", "municipio": "Zacapoaxtla", "region": "Sierra Nororiental", "lat": 19.8333, "lng": -97.5500, "poblacion": 900, "tieneTransporte": false, "lengua": "Nahuatl", "referencia": "Zona rural de cultivo de maíz" },
  { "id": 341, "nombre": "Oyameles", "municipio": "Tlatlauquitepec", "region": "Sierra Nororiental", "lat": 19.7500, "lng": -97.5167, "poblacion": 2500, "tieneTransporte": true, "lengua": "Nahuatl", "referencia": "Famoso por su producción de manzana de gran calidad" },
  { "id": 342, "nombre": "Mazatepec", "municipio": "Tlatlauquitepec", "region": "Sierra Nororiental", "lat": 19.9333, "lng": -97.4500, "poblacion": 3000, "tieneTransporte": true, "lengua": "Nahuatl", "referencia": "Cerca de la planta hidroeléctrica, clima tropical" },
  { "id": 343, "nombre": "Atempan", "municipio": "Atempan", "region": "Sierra Nororiental", "lat": 19.8333, "lng": -97.4000, "poblacion": 8000, "tieneTransporte": true, "lengua": "Nahuatl", "referencia": "Cerca del mercado municipal, zona comercial" },
  { "id": 344, "nombre": "Tezompan", "municipio": "Atempan", "region": "Sierra Nororiental", "lat": 19.8500, "lng": -97.3833, "poblacion": 1200, "tieneTransporte": false, "lengua": "Nahuatl", "referencia": "Zona de llanos cerca de Chignautla" },
  { "id": 345, "nombre": "San Juan Xiutetelco", "municipio": "Xiutetelco", "region": "Sierra Nororiental", "lat": 19.8000, "lng": -97.3333, "poblacion": 12000, "tieneTransporte": true, "lengua": "Nahuatl", "referencia": "Cerca de las pirámides en el centro del pueblo" },
  { "id": 346, "nombre": "Xaltipan", "municipio": "Xiutetelco", "region": "Sierra Nororiental", "lat": 19.8167, "lng": -97.3500, "poblacion": 4500, "tieneTransporte": true, "lengua": "Nahuatl", "referencia": "Cerca del límite con Veracruz" },
  { "id": 347, "nombre": "Hueyapan", "municipio": "Hueyapan", "region": "Sierra Nororiental", "lat": 19.9000, "lng": -97.4333, "poblacion": 5000, "tieneTransporte": true, "lengua": "Nahuatl", "referencia": "Cuna del chal bordado, faldas del cerro" },
  { "id": 348, "nombre": "Yaonáhuac", "municipio": "Yaonáhuac", "region": "Sierra Nororiental", "lat": 19.8667, "lng": -97.4500, "poblacion": 3200, "tieneTransporte": true, "lengua": "Nahuatl", "referencia": "Cerca de la parroquia de Santiago Apóstol" },
  { "id": 349, "nombre": "Atoluca", "municipio": "Teziutlán", "region": "Sierra Nororiental", "lat": 19.8500, "lng": -97.3500, "poblacion": 2800, "tieneTransporte": true, "lengua": "Nahuatl", "referencia": "Entrada norte a Teziutlán" },
  { "id": 350, "nombre": "San Juan Xiutetelco", "municipio": "Xiutetelco", "region": "Sierra Nororiental", "lat": 19.8000, "lng": -97.3333, "poblacion": 12000, "tieneTransporte": true, "lengua": "Nahuatl", "referencia": "Cerca de las pirámides en el centro del pueblo" },
  { "id": 351, "nombre": "Villa Lázaro Cárdenas", "municipio": "Venustiano Carranza", "region": "Huasteca", "lat": 20.4500, "lng": -97.6833, "poblacion": 18000, "tieneTransporte": true, "lengua": "Nahuatl", "referencia": "Llamada 'La Uno', zona petrolera y ganadera" },
  { "id": 352, "nombre": "Agua Fría", "municipio": "Venustiano Carranza", "region": "Huasteca", "lat": 20.5000, "lng": -97.6667, "poblacion": 4000, "tieneTransporte": true, "lengua": "Totonaco", "referencia": "Cerca de las instalaciones de PEMEX" },
  { "id": 353, "nombre": "Coronel Tadeo García", "municipio": "Venustiano Carranza", "region": "Huasteca", "lat": 20.4833, "lng": -97.7167, "poblacion": 1200, "tieneTransporte": false, "lengua": "Nahuatl", "referencia": "Zona de pastizales altos" },
  { "id": 354, "nombre": "Pantepec", "municipio": "Pantepec", "region": "Huasteca", "lat": 20.5500, "lng": -97.9167, "poblacion": 3500, "tieneTransporte": true, "lengua": "Totonaco", "referencia": "Cerca del río Pantepec, zona muy calurosa" },
  { "id": 355, "nombre": "Mecapalapa", "municipio": "Pantepec", "region": "Huasteca", "lat": 20.5167, "lng": -97.8500, "poblacion": 5200, "tieneTransporte": true, "lengua": "Tepehua", "referencia": "Punto de comercio importante en el norte" },
  { "id": 356, "nombre": "Acalman", "municipio": "Pantepec", "region": "Huasteca", "lat": 20.5833, "lng": -97.9000, "poblacion": 800, "tieneTransporte": false, "lengua": "Totonaco", "referencia": "Cerca de los límites con Hidalgo" },
  { "id": 357, "nombre": "Francisco Z. Mena", "municipio": "Francisco Z. Mena", "region": "Huasteca", "lat": 20.7333, "lng": -97.8500, "poblacion": 4500, "tieneTransporte": true, "lengua": "Nahuatl", "referencia": "Cerca del río Pantepec, extremo norte" },
  { "id": 358, "nombre": "Moctezuma", "municipio": "Francisco Z. Mena", "region": "Huasteca", "lat": 20.7500, "lng": -97.8333, "poblacion": 900, "tieneTransporte": false, "lengua": "Nahuatl", "referencia": "Zona de pozos petroleros" },
  { "id": 359, "nombre": "Jalpan", "municipio": "Jalpan", "region": "Huasteca", "lat": 20.4667, "lng": -97.9500, "poblacion": 1500, "tieneTransporte": false, "lengua": "Nahuatl", "referencia": "Cerca de la carretera federal 130" },
  { "id": 360, "nombre": "Apapantilla", "municipio": "Jalpan", "region": "Huasteca", "lat": 20.4333, "lng": -97.9333, "poblacion": 2500, "tieneTransporte": true, "lengua": "Nahuatl", "referencia": "Cerca del puente del río San Marcos" },
  { "id": 361, "nombre": "Hueytamalco", "municipio": "Hueytamalco", "region": "Huasteca", "lat": 20.0917, "lng": -97.2833, "poblacion": 6000, "tieneTransporte": true, "lengua": "Nahuatl", "referencia": "Zona de cascadas y plantíos de plátano" },
  { "id": 362, "nombre": "San José Acateno", "municipio": "Acateno", "region": "Huasteca", "lat": 20.1333, "lng": -97.2167, "poblacion": 5000, "tieneTransporte": true, "lengua": "Nahuatl", "referencia": "Cerca de la frontera con Veracruz, zona cítricola" },
  { "id": 363, "nombre": "Ayotoxco de Guerrero", "municipio": "Ayotoxco", "region": "Huasteca", "lat": 20.0944, "lng": -97.4111, "poblacion": 3500, "tieneTransporte": true, "lengua": "Nahuatl", "referencia": "Famoso por su feria del cacao y la ganadería" },
  { "id": 364, "nombre": "Tenampulco", "municipio": "Tenampulco", "region": "Huasteca", "lat": 20.1667, "lng": -97.4000, "poblacion": 1500, "tieneTransporte": false, "lengua": "Nahuatl", "referencia": "Zona de llanuras calientes del norte" },
  { "id": 365, "nombre": "Xicotepec de Juárez", "municipio": "Xicotepec", "region": "Sierra Norte", "lat": 20.2722, "lng": -97.9625, "poblacion": 42000, "tieneTransporte": true, "lengua": "Nahuatl", "referencia": "Cerca de la monumental Virgen de Guadalupe" },
  { "id": 366, "nombre": "Tlaxcalantongo", "municipio": "Xicotepec", "region": "Sierra Norte", "lat": 20.3500, "lng": -97.8667, "poblacion": 3000, "tieneTransporte": true, "lengua": "Nahuatl", "referencia": "Lugar histórico donde murió Venustiano Carranza" },
  { "id": 367, "nombre": "Zihuateutla", "municipio": "Zihuateutla", "region": "Sierra Norte Alta", "lat": 20.2500, "lng": -97.8833, "poblacion": 1200, "tieneTransporte": false, "lengua": "Totonaco", "referencia": "Zona de cafetales y neblina" },
  { "id": 368, "nombre": "Ahuaxotitla", "municipio": "Zihuateutla", "region": "Sierra Norte Alta", "lat": 20.2667, "lng": -97.8500, "poblacion": 800, "tieneTransporte": false, "lengua": "Totonaco", "referencia": "Zona de acceso difícil por montaña" },
  { "id": 369, "nombre": "Naupan", "municipio": "Naupan", "region": "Sierra Norte", "lat": 20.2444, "lng": -98.1222, "poblacion": 2500, "tieneTransporte": true, "lengua": "Nahuatl", "referencia": "Zona productora de flores de ornato" },
  { "id": 370, "nombre": "Xolotla", "municipio": "Pahuatlán", "region": "Sierra Norte", "lat": 20.2833, "lng": -98.1833, "poblacion": 3200, "tieneTransporte": false, "lengua": "Nahuatl", "referencia": "Comunidad nahuatl cerca del río Mamiquetla" },
  { "id": 371, "nombre": "San Pablito", "municipio": "Pahuatlán", "region": "Sierra Norte", "lat": 20.2833, "lng": -98.1500, "poblacion": 3500, "tieneTransporte": true, "lengua": "Otomi", "referencia": "Centro mundial del papel amate" },