[
  {
    "id": 1,
    "nombre": "Tehuitzingo",
    "municipio": "Tehuitzingo",
    "region": "Mixteca",
    "lat": 18.3294,
    "lng": -98.2775,
    "poblacion": 12000,
    "tieneTransporte": true,
    "lengua": "Mixteco",
    "referencia": "Centro del pueblo, cerca de la carretera federal 190"
  },
  
  {
    "id": 40,
    "nombre": "Cuetzalan del Progreso",
    "municipio": "Cuetzalan",
    "region": "Sierra Norte",
    "lat": 20.0183,
    "lng": -97.5186,
    "poblacion": 6500,
    "tieneTransporte": true,
    "lengua": "Nahuatl",
    "referencia": "Pueblo Mágico, cerca de la Parroquia de San Francisco y mercado de los domingos"
  },
  {
    "id": 41,
    "nombre": "San Andres Tzicuilan",
    "municipio": "Cuetzalan",
    "region": "Sierra Norte",
    "lat": 20.0039,
    "lng": -97.5258,
    "poblacion": 1800,
    "tieneTransporte": false,
    "lengua": "Totonaco",
    "referencia": "Cerca de las cascadas Las Brisas y el río Tzicuilan"
  },
  {
    "id": 42,
    "nombre": "Reyeshogpan de Hidalgo",
    "municipio": "Cuetzalan",
    "region": "Sierra Norte",
    "lat": 20.0381,
    "lng": -97.5453,
    "poblacion": 1200,
    "tieneTransporte": false,
    "lengua": "Nahuatl",
    "referencia": "Camino hacia Yohualichan, zona de cafetales"
  },
  {
    "id": 43,
    "nombre": "Xiloxochico de Rafael Avila Camacho",
    "municipio": "Cuetzalan",
    "region": "Sierra Norte",
    "lat": 19.9886,
    "lng": -97.4789,
    "poblacion": 1500,
    "tieneTransporte": false,
    "lengua": "Nahuatl",
    "referencia": "Cerca de la zona arqueológica de Yohualichan"
  },
  {
    "id": 44,
    "nombre": "Tepango de Rodriguez",
    "municipio": "Tepango de Rodriguez",
    "region": "Sierra Norte",
    "lat": 20.0033,
    "lng": -97.7961,
    "poblacion": 900,
    "tieneTransporte": false,
    "lengua": "Totonaco",
    "referencia": "Zona de difícil acceso en la sierra, cerca de la iglesia principal"
  },
  {
    "id": 45,
    "nombre": "Huehuetla",
    "municipio": "Huehuetla",
    "region": "Sierra Norte",
    "lat": 20.1089,
    "lng": -97.6253,
    "poblacion": 3200,
    "tieneTransporte": true,
    "lengua": "Totonaco",
    "referencia": "Junto al río Tehuantepec, centro del Totonacapan poblano"
  },
  {
    "id": 46,
    "nombre": "San Pablito Pahuatlan",
    "municipio": "Pahuatlan",
    "region": "Sierra Norte",
    "lat": 20.2872,
    "lng": -98.1508,
    "poblacion": 2800,
    "tieneTransporte": false,
    "lengua": "Otomi",
    "referencia": "Famoso por la producción de papel amate, cerca del cerro del Águila"
  },
  {
    "id": 47,
    "nombre": "Jopala",
    "municipio": "Jopala",
    "region": "Sierra Norte",
    "lat": 20.1917,
    "lng": -97.8081,
    "poblacion": 1100,
    "tieneTransporte": false,
    "lengua": "Totonaco",
    "referencia": "Cerca del río Necaxa, acceso por brechas"
  },
  {
    "id": 48,
    "nombre": "Olintla",
    "municipio": "Olintla",
    "region": "Sierra Norte",
    "lat": 20.0983,
    "lng": -97.6781,
    "poblacion": 2500,
    "tieneTransporte": false,
    "lengua": "Totonaco",
    "referencia": "Zona serrana profunda, cerca de la iglesia de San José"
  },
  {
    "id": 49,
    "nombre": "Jonotla",
    "municipio": "Jonotla",
    "region": "Sierra Norte",
    "lat": 20.0333,
    "lng": -97.5667,
    "poblacion": 900,
    "tieneTransporte": false,
    "lengua": "Nahuatl",
    "referencia": "Cerca del Peñón de Jonotla (mirador)"
  },
  {
    "id": 50,
    "nombre": "Tuzamapan de Galeana",
    "municipio": "Tuzamapan de Galeana",
    "region": "Sierra Norte",
    "lat": 20.0667,
    "lng": -97.5833,
    "poblacion": 2100,
    "tieneTransporte": true,
    "lengua": "Totonaco",
    "referencia": "Cerca del río Cempoala"
  },
  {
    "id": 51,
    "nombre": "Naupan",
    "municipio": "Naupan",
    "region": "Sierra Norte",
    "lat": 20.2458,
    "lng": -98.1214,
    "poblacion": 1800,
    "tieneTransporte": false,
    "lengua": "Nahuatl",
    "referencia": "En la falda del cerro, camino hacia Huauchinango"
  },
  {
    "id": 52,
    "nombre": "Honey",
    "municipio": "Honey",
    "region": "Sierra Norte",
    "lat": 20.2333,
    "lng": -98.2333,
    "poblacion": 1500,
    "tieneTransporte": false,
    "lengua": "Nahuatl",
    "referencia": "Zona de cascadas, clima muy frío cerca de la estación del tren"
  },
  {
    "id": 53,
    "nombre": "Hueytamalco",
    "municipio": "Hueytamalco",
    "region": "Huasteca",
    "lat": 20.0922,
    "lng": -97.2883,
    "poblacion": 4200,
    "tieneTransporte": true,
    "lengua": "Nahuatl",
    "referencia": "Cerca de la frontera con Veracruz, zona tropical"
  },
  {
    "id": 54,
    "nombre": "Ayotoxco de Guerrero",
    "municipio": "Ayotoxco",
    "region": "Huasteca",
    "lat": 20.0911,
    "lng": -97.4089,
    "poblacion": 2300,
    "tieneTransporte": false,
    "lengua": "Nahuatl",
    "referencia": "Zona ganadera, cerca del río Apulco"
  },
  {
    "id": 55,
    "nombre": "Tlatlauquitepec",
    "municipio": "Tlatlauquitepec",
    "region": "Huasteca",
    "lat": 19.8475,
    "lng": -97.4964,
    "poblacion": 9500,
    "tieneTransporte": true,
    "lengua": "Nahuatl",
    "referencia": "Al pie del Cerro Cabezón, centro histórico"
  },
  {
    "id": 56,
    "nombre": "Zautla",
    "municipio": "Zautla",
    "region": "Sierra Nororiental",
    "lat": 19.7689,
    "lng": -97.6628,
    "poblacion": 1300,
    "tieneTransporte": false,
    "lengua": "Nahuatl",
    "referencia": "Cerca de los talleres de alfarería de barro rojo"
  },
  {
    "id": 57,
    "nombre": "Chignautla",
    "municipio": "Chignautla",
    "region": "Sierra Nororiental",
    "lat": 19.8208,
    "lng": -97.3875,
    "poblacion": 3100,
    "tieneTransporte": false,
    "lengua": "Nahuatl",
    "referencia": "Cerca de los manantiales de los 9 ojos de agua"
  }
]